time;lat;lng;alt;voltage;current;level;pitch;yaw;roll;vx;vy;vz;fixtype;satellitesvisible;heading;groundspeed;airspeed;mode;system-status;armed;is-armable;ekf-ok
0.0;0.005938100000002;-47.8987428;-1.71;0.0;0.0;100.0;0.0014970476040616632;1.7977508306503296;-0.028843816369771957;0.01;0.0;-0.01;3;10;103.0;0.009999999776482582;0.009999999776482582;STABILIZE;STANDBY;false;false;false
0.5;0.005938100000002;-47.8987428;-1.75;0.0;0.0;100.0;0.0015216643223538995;1.797746181488037;-0.028834667056798935;0.01;0.0;-0.01;3;10;103.0;0.009999999776482582;0.009999999776482582;STABILIZE;STANDBY;false;false;false
1.0;0.005938100000002;-47.8987427;-1.79;0.0;0.0;100.0;0.0014855234185233712;1.7974021434783936;-0.02891276404261589;0.0;-0.01;0.0;3;10;102.0;0.009999999776482582;0.009999999776482582;STABILIZE;STANDBY;false;false;false
1.5;0.005938;-47.8987427;-1.8;0.0;0.0;100.0;0.0014553501969203353;1.7970972061157227;-0.028837036341428757;0.0;0.0;0.0;3;10;102.0;0.009999999776482582;0.009999999776482582;STABILIZE;STANDBY;false;false;false
2.0;0.005937899999999;-47.8987427;-1.8;0.0;0.0;100.0;0.0015251549193635583;1.7972863912582397;-0.028728211298584938;0.0;-0.01;0.0;3;10;102.0;0.009999999776482582;0.009999999776482582;STABILIZE;STANDBY;false;false;false
2.5;0.0059377;-47.8987427;-1.79;0.0;0.0;100.0;0.0016172571340575814;1.7973809242248535;-0.02863388881087303;-0.01;0.01;0.01;3;10;102.0;0.0;0.0;STABILIZE;STANDBY;false;false;false
3.0;0.005937599999999;-47.8987426;-1.75;0.0;0.0;100.0;0.0014818893978372216;1.7978265285491943;-0.02867749333381653;0.0;0.0;0.0;3;10;103.0;0.009999999776482582;0.009999999776482582;STABILIZE;STANDBY;false;false;false
3.5;0.005937400000001;-47.8987426;-1.72;0.0;0.0;100.0;0.0013695325469598174;1.797637701034546;-0.02869328297674656;0.01;0.0;-0.01;3;10;102.0;0.009999999776482582;0.009999999776482582;STABILIZE;STANDBY;false;false;false
4.0;0.005937299999999;-47.8987426;-1.69;0.0;0.0;100.0;0.0015260024229064584;1.797842025756836;-0.028665827587246895;0.01;-0.01;-0.01;3;10;103.0;0.009999999776482582;0.009999999776482582;STABILIZE;STANDBY;false;false;false
4.5;0.005937200000002;-47.8987426;-1.65;0.0;0.0;100.0;0.0015412109205499291;1.7976254224777222;-0.02867000736296177;0.01;0.0;-0.01;3;10;102.0;0.009999999776482582;0.009999999776482582;STABILIZE;STANDBY;false;false;false
5.0;0.005936999999999;-47.8987426;-1.65;0.0;0.0;100.0;0.001835905946791172;1.7977668046951294;-0.02861437201499939;0.01;-0.02;-0.01;3;10;103.0;0.009999999776482582;0.009999999776482582;STABILIZE;STANDBY;false;false;false
5.5;0.005936899999998;-47.8987427;-1.69;0.0;0.0;100.0;0.0016880916664376855;1.7976261377334595;-0.02853517048060894;0.03;0.0;-0.03;3;10;102.0;0.029999999329447746;0.029999999329447746;STABILIZE;STANDBY;false;false;false
6.0;0.005936699999999;-47.8987428;-1.7;0.0;0.0;100.0;0.0016938698245212436;1.7980762720108032;-0.02864687144756317;0.01;-0.02;-0.01;3;10;103.0;0.019999999552965164;0.019999999552965164;STABILIZE;STANDBY;false;false;false
6.5;0.005936599999998;-47.8987428;-1.67;0.0;0.0;100.0;0.0017128054751083255;1.7978415489196777;-0.02872317098081112;0.01;0.0;-0.01;3;10;103.0;0.009999999776482582;0.009999999776482582;STABILIZE;STANDBY;false;false;false
7.0;0.0059364;-47.8987429;-1.62;0.0;0.0;100.0;0.0017381355864927173;1.7983664274215698;-0.028662487864494324;0.0;-0.01;0.0;3;10;103.0;0.009999999776482582;0.009999999776482582;STABILIZE;STANDBY;false;false;false
7.5;0.005936200000001;-47.8987429;-1.59;0.0;0.0;100.0;0.0016876017907634377;1.798637866973877;-0.028593841940164566;0.0;0.01;0.0;3;10;103.0;0.019999999552965164;0.019999999552965164;STABILIZE;STANDBY;false;false;false
8.0;0.005935999999998;-47.898743;-1.56;0.0;0.0;100.0;0.001713809440843761;1.798741102218628;-0.02861899323761463;0.0;-0.01;0.0;3;10;103.0;0.009999999776482582;0.009999999776482582;STABILIZE;STANDBY;false;false;false
8.5;0.005935900000001;-47.8987431;-1.54;0.0;0.0;100.0;0.0016189186135306954;1.798168420791626;-0.02869817055761814;0.0;-0.01;0.0;3;10;103.0;0.009999999776482582;0.009999999776482582;STABILIZE;STANDBY;false;false;false
9.0;0.005935900000001;-47.8987433;-1.51;0.0;0.0;100.0;0.0016964551759883761;1.7978391647338867;-0.02864743210375309;-0.01;-0.01;0.01;3;10;103.0;0.009999999776482582;0.009999999776482582;STABILIZE;STANDBY;false;false;false
9.5;0.005935999999998;-47.8987435;-1.47;0.0;0.0;100.0;0.0016908912220969796;1.7981326580047607;-0.028542188927531242;0.02;0.0;-0.02;3;10;103.0;0.019999999552965164;0.019999999552965164;STABILIZE;STANDBY;false;false;false
10.0;0.005935999999998;-47.8987437;-1.48;0.0;0.0;100.0;0.0018235229654237628;1.7978708744049072;-0.028608230873942375;0.0;-0.01;0.0;3;10;103.0;0.019999999552965164;0.019999999552965164;STABILIZE;STANDBY;false;false;false
10.5;0.0059361;-47.8987439;-1.5;0.0;0.0;100.0;0.0017255105776712298;1.7979216575622559;-0.028699539601802826;0.0;0.0;0.0;3;10;103.0;0.0;0.0;STABILIZE;STANDBY;false;false;false
11.0;0.005936200000001;-47.8987442;-1.56;0.0;0.0;100.0;0.0016893564024940133;1.7982852458953857;-0.028587596490979195;0.02;0.0;-0.02;3;10;103.0;0.019999999552965164;0.019999999552965164;STABILIZE;STANDBY;false;false;false
11.5;0.0059364;-47.8987444;-1.64;0.0;0.0;100.0;0.0017555680824443698;1.7980809211730957;-0.028629081323742867;0.0;0.01;0.0;3;10;103.0;0.009999999776482582;0.009999999776482582;STABILIZE;STANDBY;false;false;false
12.0;0.005936599999998;-47.8987447;-1.71;0.0;0.0;100.0;0.0017472830368205905;1.7981704473495483;-0.02874022163450718;-0.02;-0.01;0.02;3;10;103.0;0.019999999552965164;0.019999999552965164;STABILIZE;STANDBY;false;false;false
12.5;0.005936800000001;-47.8987449;-1.75;0.0;0.0;100.0;0.0018205874366685748;1.7975881099700928;-0.028828809037804604;0.0;-0.01;0.0;3;10;102.0;0.009999999776482582;0.009999999776482582;STABILIZE;STANDBY;false;false;false
13.0;0.005936999999999;-47.898745;-1.8;0.0;0.0;100.0;0.001866052858531475;1.7976744174957275;-0.028758235275745392;0.01;-0.01;-0.01;3;10;102.0;0.009999999776482582;0.009999999776482582;STABILIZE;STANDBY;false;false;false
13.5;0.005936999999999;-47.8987452;-1.83;0.0;0.0;100.0;0.0017776553286239505;1.797309160232544;-0.02861306630074978;0.01;0.0;-0.01;3;10;102.0;0.009999999776482582;0.009999999776482582;STABILIZE;STANDBY;false;false;false
14.0;0.005937100000001;-47.8987453;-1.83;0.0;0.0;100.0;0.0019335404504090548;1.797347068786621;-0.028622636571526527;-0.01;-0.01;0.01;3;10;102.0;0.019999999552965164;0.019999999552965164;STABILIZE;STANDBY;false;false;false
14.5;0.005937100000001;-47.8987454;-1.83;0.0;0.0;100.0;0.0017151877982541919;1.797386884689331;-0.028526058420538902;0.01;-0.01;-0.01;3;10;102.0;0.009999999776482582;0.009999999776482582;STABILIZE;STANDBY;false;false;false
15.0;0.005936999999999;-47.8987455;-1.84;0.0;0.0;100.0;0.001807692344300449;1.797852873802185;-0.028605401515960693;0.0;-0.01;0.0;3;10;103.0;0.009999999776482582;0.009999999776482582;STABILIZE;STANDBY;false;false;false
15.5;0.005936899999998;-47.8987456;-1.87;0.0;0.0;100.0;0.0019697260577231646;1.797587275505066;-0.0285869762301445;0.01;0.01;-0.01;3;10;102.0;0.009999999776482582;0.009999999776482582;STABILIZE;STANDBY;false;false;false
16.0;0.005936800000001;-47.8987457;-1.88;0.0;0.0;100.0;0.0018864823505282402;1.7973576784133911;-0.028607593849301338;0.01;-0.01;-0.01;3;10;102.0;0.019999999552965164;0.019999999552965164;STABILIZE;STANDBY;false;false;false
16.5;0.005936699999999;-47.8987458;-1.89;0.0;0.0;100.0;0.001867462880909443;1.7969450950622559;-0.02853241004049778;0.0;-0.01;0.0;3;10;102.0;0.0;0.0;STABILIZE;STANDBY;false;false;false
17.0;0.005936699999999;-47.8987459;-1.87;0.0;0.0;100.0;0.0018362952396273613;1.7971047163009644;-0.028555039316415787;0.01;-0.02;-0.01;3;10;102.0;0.019999999552965164;0.019999999552965164;STABILIZE;STANDBY;false;false;false
17.5;0.005936599999998;-47.898746;-1.84;0.0;0.0;100.0;0.0017358389450237155;1.7967313528060913;-0.02855863980948925;0.01;0.0;-0.01;3;10;102.0;0.019999999552965164;0.019999999552965164;STABILIZE;STANDBY;false;false;false
18.0;0.005936599999998;-47.898746;-1.83;0.0;0.0;100.0;0.001887141726911068;1.7971465587615967;-0.028599055483937263;0.01;-0.01;-0.01;3;10;102.0;0.019999999552965164;0.019999999552965164;STABILIZE;STANDBY;false;false;false
18.5;0.005936599999998;-47.8987461;-1.85;0.0;0.0;100.0;0.0020199802238494158;1.7973099946975708;-0.02865249291062355;0.01;0.0;-0.01;3;10;102.0;0.009999999776482582;0.009999999776482582;STABILIZE;STANDBY;false;false;false
19.0;0.005936699999999;-47.8987462;-1.85;0.0;0.0;100.0;0.0018840031698346138;1.7973151206970215;-0.02864701859652996;0.0;-0.01;0.0;3;10;102.0;0.009999999776482582;0.009999999776482582;STABILIZE;STANDBY;false;false;false
19.5;0.005936699999999;-47.8987462;-1.87;0.0;0.0;100.0;0.0019231506157666445;1.7975776195526123;-0.028630752116441727;0.0;0.01;0.0;3;10;102.0;0.009999999776482582;0.009999999776482582;STABILIZE;STANDBY;false;false;false
20.0;0.005936699999999;-47.8987462;-1.92;0.0;0.0;100.0;0.002005837159231305;1.7975462675094604;-0.028691396117210388;0.0;-0.01;0.0;3;10;102.0;0.009999999776482582;0.009999999776482582;STABILIZE;STANDBY;false;false;false
20.5;0.005936800000001;-47.8987462;-1.96;0.0;0.0;100.0;0.0019893862772732973;1.7975271940231323;-0.028571903705596924;0.01;0.0;-0.01;3;10;102.0;0.019999999552965164;0.019999999552965164;STABILIZE;STANDBY;false;false;false
21.0;0.005936800000001;-47.8987462;-1.97;0.0;0.0;100.0;0.001929630758240819;1.7973345518112183;-0.028450926765799522;0.01;-0.02;-0.01;3;10;102.0;0.019999999552965164;0.019999999552965164;STABILIZE;STANDBY;false;false;false
21.5;0.005936800000001;-47.8987462;-1.96;0.0;0.0;100.0;0.0018196486635133624;1.7972869873046875;-0.02836146391928196;0.01;-0.01;-0.01;3;10;102.0;0.009999999776482582;0.009999999776482582;STABILIZE;STANDBY;false;false;false
22.0;0.005936800000001;-47.8987463;-1.94;0.0;0.0;100.0;0.00178809545468539;1.7971528768539429;-0.02844564989209175;0.01;-0.02;-0.01;3;10;102.0;0.019999999552965164;0.019999999552965164;STABILIZE;STANDBY;false;false;false
22.5;0.005936800000001;-47.8987463;-1.92;0.0;0.0;100.0;0.0017472103936597705;1.7973178625106812;-0.02831338159739971;-0.02;0.0;0.02;3;10;102.0;0.019999999552965164;0.019999999552965164;STABILIZE;STANDBY;false;false;false
23.0;0.005936699999999;-47.8987464;-1.9;0.0;0.0;100.0;0.0018824068829417229;1.7971224784851074;-0.028331879526376724;0.0;0.0;0.0;3;10;102.0;0.009999999776482582;0.009999999776482582;STABILIZE;STANDBY;false;false;false
23.5;0.005936699999999;-47.8987464;-1.87;0.0;0.0;100.0;0.0018762582913041115;1.7981544733047485;-0.028403867036104202;0.0;-0.01;0.0;3;10;103.0;0.0;0.0;STABILIZE;STANDBY;false;false;false
24.0;0.005936699999999;-47.8987464;-1.86;0.0;0.0;100.0;0.0017931450856849551;1.7979410886764526;-0.02849329076707363;0.02;0.0;-0.02;3;10;103.0;0.019999999552965164;0.019999999552965164;STABILIZE;STANDBY;false;false;false
24.5;0.005936599999998;-47.8987465;-1.83;0.0;0.0;100.0;0.0017507717711851;1.7978379726409912;-0.02844749391078949;0.0;0.0;0.0;3;10;103.0;0.0;0.0;STABILIZE;STANDBY;false;false;false
25.0;0.005936599999998;-47.8987465;-1.81;0.0;0.0;100.0;0.0017775081796571612;1.7979154586791992;-0.028544580563902855;0.02;0.0;-0.02;3;10;103.0;0.019999999552965164;0.019999999552965164;STABILIZE;STANDBY;false;false;false
25.5;0.005936500000001;-47.8987466;-1.82;0.0;0.0;100.0;0.0019004170317202806;1.7978971004486084;-0.028504563495516777;0.0;0.0;0.0;3;10;103.0;0.009999999776482582;0.009999999776482582;STABILIZE;STANDBY;false;false;false
26.0;0.0059364;-47.8987466;-1.83;0.0;0.0;100.0;0.0019026279915124178;1.7977122068405151;-0.02852933667600155;0.0;-0.01;0.0;3;10;103.0;0.009999999776482582;0.009999999776482582;STABILIZE;STANDBY;false;false;false
26.5;0.0059361;-47.8987467;-1.85;0.0;0.0;100.0;0.0019037288147956133;1.798153281211853;-0.028463173657655716;0.02;0.01;-0.02;3;10;103.0;0.0;0.0;STABILIZE;STANDBY;false;false;false
27.0;0.0059361;-47.8987467;-1.84;0.0;0.0;100.0;0.0016887957463040948;1.7983014583587646;-0.028526099398732185;0.0;0.01;0.0;3;10;103.0;0.009999999776482582;0.009999999776482582;STABILIZE;STANDBY;false;false;false
27.5;0.005935900000001;-47.8987467;-1.84;0.0;0.0;100.0;0.0017050773603841662;1.7986044883728027;-0.028579648584127426;0.0;-0.02;0.0;3;10;103.0;0.009999999776482582;0.009999999776482582;STABILIZE;STANDBY;false;false;false
28.0;0.005935699999998;-47.8987468;-1.86;0.0;0.0;100.0;0.0017959688557311893;1.798396110534668;-0.028615200892090797;-0.01;0.01;0.01;3;10;103.0;0.009999999776482582;0.009999999776482582;STABILIZE;STANDBY;false;false;false
28.5;0.005935600000001;-47.8987468;-1.89;0.0;0.0;100.0;0.0017006032867357135;1.7982680797576904;-0.02850090153515339;0.0;0.0;0.0;3;10;103.0;0.009999999776482582;0.009999999776482582;STABILIZE;STANDBY;false;false;false
29.0;0.0059355;-47.8987467;-1.91;0.0;0.0;100.0;0.0018368670716881752;1.7981127500534058;-0.028373882174491882;0.01;-0.01;-0.01;3;10;103.0;0.009999999776482582;0.009999999776482582;STABILIZE;STANDBY;false;false;false
29.5;0.005935399999998;-47.8987467;-1.89;0.0;0.0;100.0;0.001957598375156522;1.7984052896499634;-0.028494030237197876;0.01;-0.01;-0.01;3;10;103.0;0.009999999776482582;0.009999999776482582;STABILIZE;STANDBY;false;false;false
30.0;0.0059352;-47.8987467;-1.86;0.0;0.0;100.0;0.001953075872734189;1.7982362508773804;-0.028479749336838722;-0.01;0.0;0.01;3;10;103.0;0.019999999552965164;0.019999999552965164;STABILIZE;STANDBY;false;false;false
30.5;0.005935099999999;-47.8987466;-1.82;0.0;0.0;100.0;0.002047046320512891;1.7984038591384888;-0.02846449799835682;0.0;0.0;0.0;3;10;103.0;0.0;0.0;STABILIZE;STANDBY;false;false;false
31.0;0.005935000000001;-47.8987465;-1.79;0.0;0.0;100.0;0.002115012612193823;1.7986658811569214;-0.028563812375068665;0.0;0.0;0.0;3;10;103.0;0.009999999776482582;0.009999999776482582;STABILIZE;STANDBY;false;false;false
31.5;0.0059349;-47.8987465;-1.77;0.0;0.0;100.0;0.0019895427394658327;1.7991535663604736;-0.028538690879940987;0.01;0.0;-0.01;3;10;103.0;0.009999999776482582;0.009999999776482582;STABILIZE;STANDBY;false;false;false
32.0;0.005934700000001;-47.8987464;-1.73;0.0;0.0;100.0;0.0020504978019744158;1.7987537384033203;-0.028449954465031624;-0.01;-0.01;0.01;3;10;103.0;0.009999999776482582;0.009999999776482582;STABILIZE;STANDBY;false;false;false
32.5;0.005934700000001;-47.8987464;-1.73;0.0;0.0;100.0;0.001989658223465085;1.7987855672836304;-0.028444839641451836;0.01;0.0;-0.01;3;10;103.0;0.009999999776482582;0.009999999776482582;STABILIZE;STANDBY;false;false;false
33.0;0.0059346;-47.8987464;-1.7;0.0;0.0;100.0;0.0020207997877150774;1.7983379364013672;-0.028414100408554077;0.0;-0.01;0.0;3;10;103.0;0.009999999776482582;0.009999999776482582;STABILIZE;STANDBY;false;false;false
33.5;0.005934499999999;-47.8987464;-1.7;0.0;0.0;100.0;0.0021097767166793346;1.7981226444244385;-0.028505684807896614;0.0;-0.01;0.0;3;10;103.0;0.009999999776482582;0.009999999776482582;STABILIZE;STANDBY;false;false;false
34.0;0.005934400000001;-47.8987464;-1.69;0.0;0.0;100.0;0.002027974696829915;1.797507405281067;-0.028615359216928482;0.0;0.0;0.0;3;10;102.0;0.009999999776482582;0.009999999776482582;STABILIZE;STANDBY;false;false;false
34.5;0.0059343;-47.8987463;-1.71;0.0;0.0;100.0;0.002134548267349601;1.7981842756271362;-0.02860233746469021;0.0;-0.01;0.0;3;10;103.0;0.009999999776482582;0.009999999776482582;STABILIZE;STANDBY;false;false;false
35.0;0.0059343;-47.8987463;-1.76;0.0;0.0;100.0;0.0020481154788285494;1.7978744506835938;-0.028550852090120316;0.0;0.01;0.0;3;10;103.0;0.009999999776482582;0.009999999776482582;STABILIZE;STANDBY;false;false;false
35.5;0.005934199999999;-47.8987462;-1.8;0.0;0.0;100.0;0.001938582630828023;1.7984261512756348;-0.028443746268749237;0.0;-0.01;0.0;3;10;103.0;0.009999999776482582;0.009999999776482582;STABILIZE;STANDBY;false;false;false
36.0;0.005934199999999;-47.8987461;-1.85;0.0;0.0;100.0;0.001838156022131443;1.7982773780822754;-0.028458958491683006;0.0;-0.01;0.0;3;10;103.0;0.009999999776482582;0.009999999776482582;STABILIZE;STANDBY;false;false;false
36.5;0.005934199999999;-47.8987461;-1.87;0.0;0.0;100.0;0.001983118476346135;1.797762155532837;-0.028325997292995453;0.0;-0.01;0.0;3;10;103.0;0.009999999776482582;0.009999999776482582;STABILIZE;STANDBY;false;false;false
37.0;0.0059343;-47.898746;-1.9;0.0;0.0;100.0;0.0020773052237927914;1.7975571155548096;-0.02841157093644142;0.01;-0.01;-0.01;3;10;102.0;0.0;0.0;STABILIZE;STANDBY;false;false;false
37.5;0.005934400000001;-47.8987459;-1.91;0.0;0.0;100.0;0.002043466316536069;1.7973519563674927;-0.028690790757536888;0.0;-0.01;0.0;3;10;102.0;0.009999999776482582;0.009999999776482582;STABILIZE;STANDBY;false;false;false
38.0;0.005934499999999;-47.8987458;-1.92;0.0;0.0;100.0;0.0020025421399623156;1.7972235679626465;-0.028719240799546242;0.0;-0.01;0.0;3;10;102.0;0.009999999776482582;0.009999999776482582;STABILIZE;STANDBY;false;false;false
38.5;0.0059346;-47.8987458;-1.95;0.0;0.0;100.0;0.00205472600646317;1.7974680662155151;-0.028821401298046112;0.01;-0.01;-0.01;3;10;102.0;0.0;0.0;STABILIZE;STANDBY;false;false;false
39.0;0.005934700000001;-47.8987458;-1.97;0.0;0.0;100.0;0.002021990017965436;1.7973036766052246;-0.028720654547214508;0.01;0.01;-0.01;3;10;102.0;0.009999999776482582;0.009999999776482582;STABILIZE;STANDBY;false;false;false
39.5;0.005934799999999;-47.8987458;-2.01;0.0;0.0;100.0;0.0020679079461842775;1.7976889610290527;-0.02888602949678898;0.02;0.0;-0.02;3;10;102.0;0.009999999776482582;0.009999999776482582;STABILIZE;STANDBY;false;false;false
40.0;0.005934799999999;-47.8987459;-1.99;0.0;0.0;100.0;0.0020060737151652575;1.7973004579544067;-0.028943276032805443;-0.01;0.0;0.01;3;10;102.0;0.009999999776482582;0.009999999776482582;STABILIZE;STANDBY;false;false;false
40.5;0.0059349;-47.8987459;-2.0;0.0;0.0;100.0;0.0021023242734372616;1.7969064712524414;-0.028759457170963287;0.0;-0.01;0.0;3;10;102.0;0.009999999776482582;0.009999999776482582;STABILIZE;STANDBY;false;false;false
41.0;0.005935000000001;-47.898746;-1.97;0.0;0.0;100.0;0.002018814207985997;1.7974094152450562;-0.028832698240876198;0.0;-0.01;0.0;3;10;102.0;0.009999999776482582;0.009999999776482582;STABILIZE;STANDBY;false;false;false
41.5;0.0059352;-47.8987461;-2.01;0.0;0.0;100.0;0.002014489145949483;1.7969518899917603;-0.02884095348417759;0.0;-0.01;0.0;3;10;102.0;0.019999999552965164;0.019999999552965164;STABILIZE;STANDBY;false;false;false
42.0;0.005935399999998;-47.8987462;-2.01;0.0;0.0;100.0;0.0020415291655808687;1.7966917753219604;-0.028860338032245636;0.01;0.0;-0.01;3;10;102.0;0.009999999776482582;0.009999999776482582;STABILIZE;STANDBY;false;false;false
42.5;0.0059355;-47.8987463;-2.0;0.0;0.0;100.0;0.0020751631818711758;1.7969061136245728;-0.028852468356490135;0.01;0.0;-0.01;3;10;102.0;0.009999999776482582;0.009999999776482582;STABILIZE;STANDBY;false;false;false
43.0;0.005935699999998;-47.8987464;-1.97;0.0;0.0;100.0;0.0021779851522296667;1.796750545501709;-0.028675993904471397;0.0;0.0;0.0;3;10;102.0;0.009999999776482582;0.009999999776482582;STABILIZE;STANDBY;false;false;false
43.5;0.005935699999998;-47.8987465;-1.98;0.0;0.0;100.0;0.002078463789075613;1.7970530986785889;-0.02871418558061123;-0.01;-0.01;0.01;3;10;102.0;0.009999999776482582;0.009999999776482582;STABILIZE;STANDBY;false;false;false
44.0;0.0059358;-47.8987467;-1.98;0.0;0.0;100.0;0.002102592494338751;1.796812891960144;-0.028842465952038765;0.02;-0.01;-0.02;3;10;102.0;0.009999999776482582;0.009999999776482582;STABILIZE;STANDBY;false;false;false
44.5;0.005935900000001;-47.8987468;-2.01;0.0;0.0;100.0;0.002078456338495016;1.7972018718719482;-0.028894178569316864;0.0;-0.02;0.0;3;10;102.0;0.019999999552965164;0.019999999552965164;STABILIZE;STANDBY;false;false;false
45.0;0.005935999999998;-47.8987469;-2.02;0.0;0.0;100.0;0.002114684786647558;1.796994686126709;-0.028702717274427414;0.0;-0.01;0.0;3;10;102.0;0.009999999776482582;0.009999999776482582;STABILIZE;STANDBY;false;false;false
45.5;0.005935999999998;-47.898747;-2.02;0.0;0.0;100.0;0.0021629517432302237;1.7973201274871826;-0.02856476604938507;0.01;-0.01;-0.01;3;10;102.0;0.009999999776482582;0.009999999776482582;STABILIZE;STANDBY;false;false;false
46.0;0.0059361;-47.8987471;-2.03;0.0;0.0;100.0;0.002227972960099578;1.7972750663757324;-0.028454704210162163;0.0;0.0;0.0;3;10;102.0;0.0;0.0;STABILIZE;STANDBY;false;false;false
46.5;0.005936200000001;-47.8987471;-2.04;0.0;0.0;100.0;0.0021932011004537344;1.797853946685791;-0.02860529161989689;0.0;-0.01;0.0;3;10;103.0;0.009999999776482582;0.009999999776482582;STABILIZE;STANDBY;false;false;false
47.0;0.005936299999998;-47.8987471;-2.01;0.0;0.0;100.0;0.0022676344960927963;1.7975211143493652;-0.02862340770661831;0.02;0.0;-0.02;3;10;102.0;0.019999999552965164;0.019999999552965164;STABILIZE;STANDBY;false;false;false
47.5;0.0059364;-47.898747;-2.01;0.0;0.0;100.0;0.0023056510835886;1.798063039779663;-0.028824184089899063;0.0;-0.01;0.0;3;10;103.0;0.009999999776482582;0.009999999776482582;STABILIZE;STANDBY;false;false;false
48.0;0.0059364;-47.8987469;-2.01;0.0;0.0;100.0;0.0022906940430402756;1.7978501319885254;-0.02879191003739834;-0.01;-0.03;0.01;3;10;103.0;0.019999999552965164;0.019999999552965164;STABILIZE;STANDBY;false;false;false
48.5;0.005936500000001;-47.8987468;-2.0;0.0;0.0;100.0;0.0022766590118408203;1.7980064153671265;-0.028666222468018532;0.0;0.0;0.0;3;10;103.0;0.009999999776482582;0.009999999776482582;STABILIZE;STANDBY;false;false;false
49.0;0.005936500000001;-47.8987468;-1.97;0.0;0.0;100.0;0.0023140739649534225;1.7975656986236572;-0.028830163180828094;0.03;0.02;-0.03;3;10;102.0;0.03999999910593033;0.03999999910593033;STABILIZE;STANDBY;false;false;false
49.5;0.005936500000001;-47.8987467;-1.95;0.0;0.0;100.0;0.002123316517099738;1.7977426052093506;-0.028843197971582413;0.0;0.0;0.0;3;10;103.0;0.0;0.0;STABILIZE;STANDBY;false;false;false
50.0;0.005936699999999;-47.8987466;-1.94;0.0;0.0;100.0;0.0021597554441541433;1.79730224609375;-0.028918802738189697;0.01;0.0;-0.01;3;10;102.0;0.009999999776482582;0.009999999776482582;STABILIZE;STANDBY;false;false;false
50.5;0.005936800000001;-47.8987466;-1.94;0.0;0.0;100.0;0.0021328048314899206;1.7977708578109741;-0.028856128454208374;0.01;-0.01;-0.01;3;10;103.0;0.019999999552965164;0.019999999552965164;STABILIZE;STANDBY;false;false;false
51.0;0.005936899999998;-47.8987465;-1.97;0.0;0.0;100.0;0.002278244122862816;1.7980533838272095;-0.028788933530449867;0.0;0.0;0.0;3;10;103.0;0.0;0.0;STABILIZE;STANDBY;false;false;false
51.5;0.005936999999999;-47.8987465;-1.96;0.0;0.0;100.0;0.002197084715589881;1.798622488975525;-0.028686324134469032;0.01;-0.01;-0.01;3;10;103.0;0.009999999776482582;0.009999999776482582;STABILIZE;STANDBY;false;false;false
52.0;0.005937299999999;-47.8987464;-1.99;0.0;0.0;100.0;0.0022183561231940985;1.7977356910705566;-0.02875448204576969;0.0;-0.01;0.0;3;10;103.0;0.009999999776482582;0.009999999776482582;STABILIZE;STANDBY;false;false;false
52.5;0.005937400000001;-47.8987463;-2.0;0.0;0.0;100.0;0.0020217758137732744;1.797886848449707;-0.028848741203546524;0.01;-0.01;-0.01;3;10;103.0;0.009999999776482582;0.009999999776482582;STABILIZE;STANDBY;false;false;false
53.0;0.005937500000002;-47.8987463;-2.0;0.0;0.0;100.0;0.0021437944378703833;1.7976152896881104;-0.02887057699263096;0.0;-0.02;0.0;3;10;102.0;0.009999999776482582;0.009999999776482582;STABILIZE;STANDBY;false;false;false
53.5;0.0059377;-47.8987463;-2.01;0.0;0.0;100.0;0.0020950245670974255;1.7980475425720215;-0.029069600626826286;0.01;-0.02;-0.01;3;10;103.0;0.009999999776482582;0.009999999776482582;STABILIZE;STANDBY;false;false;false
54.0;0.005937899999999;-47.8987462;-1.97;0.0;0.0;100.0;0.0022244860883802176;1.79752779006958;-0.029030192643404007;0.01;-0.01;-0.01;3;10;102.0;0.019999999552965164;0.019999999552965164;STABILIZE;STANDBY;false;false;false
54.5;0.005937899999999;-47.8987462;-1.96;0.0;0.0;100.0;0.002163640921935439;1.7982087135314941;-0.029160525649785995;0.0;-0.02;0.0;3;10;103.0;0.009999999776482582;0.009999999776482582;STABILIZE;STANDBY;false;false;false
55.0;0.005938;-47.8987462;-1.96;0.0;0.0;100.0;0.0022296474780887365;1.7978435754776;-0.02892202138900757;0.01;-0.01;-0.01;3;10;103.0;0.009999999776482582;0.009999999776482582;STABILIZE;STANDBY;false;false;false
55.5;0.005938199999999;-47.8987462;-1.94;0.0;0.0;100.0;0.002195067470893264;1.7983591556549072;-0.02887699380517006;0.0;0.0;0.0;3;10;103.0;0.009999999776482582;0.009999999776482582;STABILIZE;STANDBY;false;false;false
56.0;0.005938199999999;-47.8987461;-1.95;0.0;0.0;100.0;0.0022192855831235647;1.7981549501419067;-0.028836790472269058;0.0;0.0;0.0;3;10;103.0;0.009999999776482582;0.009999999776482582;STABILIZE;STANDBY;false;false;false
56.5;0.0059383;-47.8987461;-1.95;0.0;0.0;100.0;0.0022221708204597235;1.7981173992156982;-0.0288043525069952;0.0;0.0;0.0;3;10;103.0;0.0;0.0;STABILIZE;STANDBY;false;false;false
57.0;0.005938400000002;-47.898746;-1.96;0.0;0.0;100.0;0.002356031909584999;1.7980091571807861;-0.02866634726524353;0.01;0.0;-0.01;3;10;103.0;0.009999999776482582;0.009999999776482582;STABILIZE;STANDBY;false;false;false
57.5;0.005938400000002;-47.898746;-1.97;0.0;0.0;100.0;0.0022622644901275635;1.7978638410568237;-0.028854936361312866;-0.01;0.0;0.01;3;10;103.0;0.009999999776482582;0.009999999776482582;STABILIZE;STANDBY;false;false;false
58.0;0.005938400000002;-47.8987459;-2.01;0.0;0.0;100.0;0.002437139395624399;1.7971713542938232;-0.02895728312432766;0.01;0.0;-0.01;3;10;102.0;0.009999999776482582;0.009999999776482582;STABILIZE;STANDBY;false;false;false
58.5;0.0059383;-47.8987457;-2.02;0.0;0.0;100.0;0.002386953914538026;1.7974886894226074;-0.028981007635593414;0.0;-0.01;0.0;3;10;102.0;0.009999999776482582;0.009999999776482582;STABILIZE;STANDBY;false;false;false
59.0;0.0059383;-47.8987456;-2.05;0.0;0.0;100.0;0.0022821687161922455;1.7973085641860962;-0.028831947594881058;-0.01;0.0;0.01;3;10;102.0;0.0;0.0;STABILIZE;STANDBY;false;false;false
59.5;0.0059383;-47.8987455;-2.07;0.0;0.0;100.0;0.0022229028400033712;1.7977163791656494;-0.028629647567868233;0.0;0.0;0.0;3;10;103.0;0.0;0.0;STABILIZE;STANDBY;false;false;false
60.0;0.005938199999999;-47.8987453;-2.09;0.0;0.0;100.0;0.0023471172899007797;1.7976329326629639;-0.0286706630140543;0.0;-0.01;0.0;3;10;102.0;0.009999999776482582;0.009999999776482582;STABILIZE;STANDBY;false;false;false
60.5;0.005938100000002;-47.8987451;-2.11;0.0;0.0;100.0;0.0021689569111913443;1.7975993156433105;-0.028625311329960823;-0.01;0.0;0.01;3;10;102.0;0.009999999776482582;0.009999999776482582;STABILIZE;STANDBY;false;false;false
61.0;0.005938100000002;-47.8987449;-2.12;0.0;0.0;100.0;0.0020426318515092134;1.7972923517227173;-0.028640739619731903;0.0;-0.01;0.0;3;10;102.0;0.009999999776482582;0.009999999776482582;STABILIZE;STANDBY;false;false;false
61.5;0.005938;-47.8987447;-2.12;0.0;0.0;100.0;0.00200921599753201;1.797359824180603;-0.028607923537492752;0.01;0.0;-0.01;3;10;102.0;0.009999999776482582;0.009999999776482582;STABILIZE;STANDBY;false;false;false
62.0;0.005937899999999;-47.8987446;-2.14;0.0;0.0;100.0;0.001989861251786351;1.7974008321762085;-0.028599126264452934;0.02;-0.02;-0.02;3;10;102.0;0.019999999552965164;0.019999999552965164;STABILIZE;STANDBY;false;false;false
62.5;0.005937899999999;-47.8987445;-2.14;0.0;0.0;100.0;0.0020833215676248074;1.796846628189087;-0.028608061373233795;0.01;-0.01;-0.01;3;10;102.0;0.009999999776482582;0.009999999776482582;STABILIZE;STANDBY;false;false;false
63.0;0.005937899999999;-47.8987444;-2.15;0.0;0.0;100.0;0.002195570385083556;1.797419548034668;-0.028647996485233307;0.01;-0.01;-0.01;3;10;102.0;0.009999999776482582;0.009999999776482582;STABILIZE;STANDBY;false;false;false
63.5;0.005937899999999;-47.8987443;-2.12;0.0;0.0;100.0;0.0021108570508658886;1.7967555522918701;-0.028709091246128082;-0.01;0.0;0.01;3;10;102.0;0.009999999776482582;0.009999999776482582;STABILIZE;STANDBY;false;false;false
64.0;0.005938;-47.8987443;-2.09;0.0;0.0;100.0;0.0021786110009998083;1.7975164651870728;-0.028735842555761337;0.0;0.0;0.0;3;10;102.0;0.009999999776482582;0.009999999776482582;STABILIZE;STANDBY;false;false;false
64.5;0.005938100000002;-47.8987442;-2.08;0.0;0.0;100.0;0.0021330451127141714;1.797174096107483;-0.028919480741024017;-0.01;0.0;0.01;3;10;102.0;0.009999999776482582;0.009999999776482582;STABILIZE;STANDBY;false;false;false
65.0;0.005938100000002;-47.8987441;-2.05;0.0;0.0;100.0;0.0021756382193416357;1.797300100326538;-0.028813960030674934;0.01;0.0;-0.01;3;10;102.0;0.009999999776482582;0.009999999776482582;STABILIZE;STANDBY;false;false;false
65.5;0.005938199999999;-47.8987441;-2.01;0.0;0.0;100.0;0.0020512056071311235;1.7967989444732666;-0.02870459482073784;-0.01;0.01;0.01;3;10;102.0;0.009999999776482582;0.009999999776482582;STABILIZE;STANDBY;false;false;false
66.0;0.005938199999999;-47.8987441;-1.99;0.0;0.0;100.0;0.002231620019301772;1.7970061302185059;-0.028622616082429886;0.01;-0.02;-0.01;3;10;102.0;0.019999999552965164;0.019999999552965164;STABILIZE;STANDBY;false;false;false
66.5;0.0059383;-47.898744;-1.96;0.0;0.0;100.0;0.0022049841936677694;1.797141432762146;-0.02877013385295868;0.01;-0.01;-0.01;3;10;102.0;0.0;0.0;STABILIZE;STANDBY;false;false;false
67.0;0.005938400000002;-47.8987439;-1.92;0.0;0.0;100.0;0.002157574286684394;1.7979825735092163;-0.02874065935611725;-0.01;-0.02;0.01;3;10;103.0;0.019999999552965164;0.019999999552965164;STABILIZE;STANDBY;false;false;false
67.5;0.0059386;-47.8987439;-1.91;0.0;0.0;100.0;0.002121573081240058;1.7975642681121826;-0.028878113254904747;0.0;0.0;0.0;3;10;102.0;0.009999999776482582;0.009999999776482582;STABILIZE;STANDBY;false;false;false
68.0;0.005938700000002;-47.8987438;-1.9;0.0;0.0;100.0;0.002047210233286023;1.7978386878967285;-0.028900355100631714;0.0;0.0;0.0;3;10;103.0;0.009999999776482582;0.009999999776482582;STABILIZE;STANDBY;false;false;false
68.5;0.0059389;-47.8987437;-1.9;0.0;0.0;100.0;0.0019723132718354464;1.797619342803955;-0.02881503477692604;-0.01;0.01;0.01;3;10;102.0;0.009999999776482582;0.009999999776482582;STABILIZE;STANDBY;false;false;false
69.0;0.005939099999999;-47.8987437;-1.91;0.0;0.0;100.0;0.0020896843634545803;1.7975945472717285;-0.028800712898373604;-0.01;0.0;0.01;3;10;102.0;0.009999999776482582;0.009999999776482582;STABILIZE;STANDBY;false;false;false
69.5;0.005939300000001;-47.8987436;-1.91;0.0;0.0;100.0;0.001968342112377286;1.7975033521652222;-0.028793370351195335;0.01;-0.01;-0.01;3;10;102.0;0.0;0.0;STABILIZE;STANDBY;false;false;false
70.0;0.005939399999999;-47.8987436;-1.93;0.0;0.0;100.0;0.001970432000234723;1.7973381280899048;-0.02865903452038765;0.0;-0.01;0.0;3;10;102.0;0.009999999776482582;0.009999999776482582;STABILIZE;STANDBY;false;false;false
70.5;0.005939600000001;-47.8987436;-1.94;0.0;0.0;100.0;0.002113416325300932;1.7972798347473145;-0.028671501204371452;0.0;0.0;0.0;3;10;102.0;0.009999999776482582;0.009999999776482582;STABILIZE;STANDBY;false;false;false
71.0;0.005939699999999;-47.8987435;-1.98;0.0;0.0;100.0;0.001983586000278592;1.7977828979492188;-0.028627514839172363;0.01;0.0;-0.01;3;10;103.0;0.009999999776482582;0.009999999776482582;STABILIZE;STANDBY;false;false;false
71.5;0.0059398;-47.8987435;-1.99;0.0;0.0;100.0;0.0020483166445046663;1.7977285385131836;-0.028489014133810997;0.0;-0.01;0.0;3;10;103.0;0.009999999776482582;0.009999999776482582;STABILIZE;STANDBY;false;false;false
72.0;0.005939900000001;-47.8987434;-2.01;0.0;0.0;100.0;0.0020369638223201036;1.7978774309158325;-0.028679365292191505;0.02;0.01;-0.02;3;10;103.0;0.019999999552965164;0.019999999552965164;STABILIZE;STANDBY;false;false;false
72.5;0.005939999999999;-47.8987434;-2.04;0.0;0.0;100.0;0.002059935824945569;1.797929048538208;-0.028657210990786552;0.01;0.01;-0.01;3;10;103.0;0.009999999776482582;0.009999999776482582;STABILIZE;STANDBY;false;false;false
73.0;0.005939999999999;-47.8987434;-2.05;0.0;0.0;100.0;0.002146713202819228;1.7977759838104248;-0.02869505062699318;-0.01;-0.01;0.01;3;10;103.0;0.009999999776482582;0.009999999776482582;STABILIZE;STANDBY;false;false;false
73.5;0.005939999999999;-47.8987434;-2.11;0.0;0.0;100.0;0.002312891185283661;1.7978570461273193;-0.02861526422202587;0.01;0.0;-0.01;3;10;103.0;0.009999999776482582;0.009999999776482582;STABILIZE;STANDBY;false;false;false
74.0;0.005939900000001;-47.8987434;-2.13;0.0;0.0;100.0;0.002311892807483673;1.797452449798584;-0.028715921565890312;0.0;0.0;0.0;3;10;102.0;0.019999999552965164;0.019999999552965164;STABILIZE;STANDBY;false;false;false
74.5;0.005939900000001;-47.8987434;-2.13;0.0;0.0;100.0;0.002260880544781685;1.7972440719604492;-0.02886059880256653;0.01;-0.01;-0.01;3;10;102.0;0.009999999776482582;0.009999999776482582;STABILIZE;STANDBY;false;false;false
75.0;0.005939900000001;-47.8987434;-2.15;0.0;0.0;100.0;0.00226723775267601;1.7977607250213623;-0.028745241463184357;0.03;0.0;-0.03;3;10;103.0;0.019999999552965164;0.019999999552965164;STABILIZE;STANDBY;false;false;false
75.5;0.005939900000001;-47.8987434;-2.13;0.0;0.0;100.0;0.0021956765558570623;1.7972774505615234;-0.028780879452824593;0.0;0.02;0.0;3;10;102.0;0.019999999552965164;0.019999999552965164;STABILIZE;STANDBY;false;false;false
76.0;0.005939900000001;-47.8987433;-2.09;0.0;0.0;100.0;0.002148665254935622;1.7978055477142334;-0.028637485578656197;0.0;-0.01;0.0;3;10;103.0;0.019999999552965164;0.019999999552965164;STABILIZE;STANDBY;false;false;false
76.5;0.005939999999999;-47.8987433;-2.05;0.0;0.0;100.0;0.0020126060117036104;1.79715895652771;-0.02873646281659603;-0.01;0.0;0.01;3;10;102.0;0.0;0.0;STABILIZE;STANDBY;false;false;false
77.0;0.0059401;-47.8987433;-2.04;0.0;0.0;100.0;0.0019195352215319872;1.797100305557251;-0.02878960408270359;0.01;-0.01;-0.01;3;10;102.0;0.019999999552965164;0.019999999552965164;STABILIZE;STANDBY;false;false;false
77.5;0.0059401;-47.8987433;-2.04;0.0;0.0;100.0;0.002038846956565976;1.7966758012771606;-0.02890516258776188;-0.01;0.0;0.01;3;10;102.0;0.009999999776482582;0.009999999776482582;STABILIZE;STANDBY;false;false;false
78.0;0.005940299999999;-47.8987433;-2.02;0.0;0.0;100.0;0.002035596640780568;1.7965291738510132;-0.028734620660543442;-0.01;-0.01;0.01;3;10;102.0;0.009999999776482582;0.009999999776482582;STABILIZE;STANDBY;false;false;false
78.5;0.0059404;-47.8987434;-2.01;0.0;0.0;100.0;0.002124346559867263;1.7965612411499023;-0.02868138998746872;0.0;-0.01;0.0;3;10;102.0;0.009999999776482582;0.009999999776482582;STABILIZE;STANDBY;false;false;false
79.0;0.005940500000001;-47.8987434;-2.02;0.0;0.0;100.0;0.0021665391977876425;1.7974108457565308;-0.028631538152694702;0.02;-0.01;-0.02;3;10;102.0;0.009999999776482582;0.009999999776482582;STABILIZE;STANDBY;false;false;false
79.5;0.0059407;-47.8987435;-2.0;0.0;0.0;100.0;0.0020626590121537447;1.796897053718567;-0.02870238572359085;0.0;0.01;0.0;3;10;102.0;0.009999999776482582;0.009999999776482582;STABILIZE;STANDBY;false;false;false
80.0;0.005940800000001;-47.8987436;-2.01;0.0;0.0;100.0;0.0019256744999438524;1.797181248664856;-0.028620008379220963;0.0;0.0;0.0;3;10;102.0;0.009999999776482582;0.009999999776482582;STABILIZE;STANDBY;false;false;false
80.5;0.005941100000001;-47.8987437;-2.03;0.0;0.0;100.0;0.0019733936060220003;1.7970391511917114;-0.02856573276221752;0.0;0.0;0.0;3;10;102.0;0.009999999776482582;0.009999999776482582;STABILIZE;STANDBY;false;false;false
81.0;0.0059413;-47.8987438;-2.05;0.0;0.0;100.0;0.002015716629102826;1.7967336177825928;-0.02866213768720627;0.0;-0.01;0.0;3;10;102.0;0.009999999776482582;0.009999999776482582;STABILIZE;STANDBY;false;false;false
81.5;0.005941499999999;-47.8987439;-2.05;0.0;0.0;100.0;0.0020639218855649233;1.796615719795227;-0.028646346181631088;0.0;-0.01;0.0;3;10;102.0;0.019999999552965164;0.019999999552965164;STABILIZE;STANDBY;false;false;false
82.0;0.005941799999999;-47.8987441;-2.05;0.0;0.0;100.0;0.002076858188956976;1.7966442108154297;-0.02864154241979122;0.01;-0.01;-0.01;3;10;102.0;0.009999999776482582;0.009999999776482582;STABILIZE;STANDBY;false;false;false
82.5;0.005942000000001;-47.8987443;-2.03;0.0;0.0;100.0;0.0020151075441390276;1.7966465950012207;-0.02866574004292488;0.01;-0.01;-0.01;3;10;102.0;0.009999999776482582;0.009999999776482582;STABILIZE;STANDBY;false;false;false
83.0;0.005942300000001;-47.8987444;-2.02;0.0;0.0;100.0;0.00200267625041306;1.7968412637710571;-0.02865161933004856;0.0;-0.01;0.0;3;10;102.0;0.019999999552965164;0.019999999552965164;STABILIZE;STANDBY;false;false;false
83.5;0.005942600000001;-47.8987446;-2.02;0.0;0.0;100.0;0.0018966563511639833;1.7967255115509033;-0.028552832081913948;0.01;0.0;-0.01;3;10;102.0;0.009999999776482582;0.009999999776482582;STABILIZE;STANDBY;false;false;false
84.0;0.005942699999999;-47.8987446;-2.01;0.0;0.0;100.0;0.0018255756003782153;1.7968565225601196;-0.028416628018021584;0.0;-0.01;0.0;3;10;102.0;0.009999999776482582;0.009999999776482582;STABILIZE;STANDBY;false;false;false
84.5;0.0059428;-47.8987448;-2.02;0.0;0.0;100.0;0.0018193450523540378;1.7970421314239502;-0.028581390157341957;0.0;-0.01;0.0;3;10;102.0;0.009999999776482582;0.009999999776482582;STABILIZE;STANDBY;false;false;false
85.0;0.005942900000001;-47.8987448;-2.01;0.0;0.0;100.0;0.0019635141361504793;1.7969850301742554;-0.028688134625554085;0.01;-0.01;-0.01;3;10;102.0;0.019999999552965164;0.019999999552965164;STABILIZE;STANDBY;false;false;false
85.5;0.005942999999998;-47.8987448;-1.99;0.0;0.0;100.0;0.0019609362352639437;1.7974011898040771;-0.028559552505612373;0.0;0.0;0.0;3;10;102.0;0.0;0.0;STABILIZE;STANDBY;false;false;false
86.0;0.0059431;-47.8987449;-1.98;0.0;0.0;100.0;0.0019069586414843798;1.797036051750183;-0.028740884736180305;0.0;-0.02;0.0;3;10;102.0;0.009999999776482582;0.009999999776482582;STABILIZE;STANDBY;false;false;false
86.5;0.005943299999998;-47.898745;-1.95;0.0;0.0;100.0;0.0018574176356196404;1.7970430850982666;-0.02870563417673111;0.0;-0.01;0.0;3;10;102.0;0.009999999776482582;0.009999999776482582;STABILIZE;STANDBY;false;false;false
87.0;0.0059434;-47.898745;-1.95;0.0;0.0;100.0;0.001984707312658429;1.7973743677139282;-0.028845349326729774;0.01;-0.01;-0.01;3;10;102.0;0.019999999552965164;0.019999999552965164;STABILIZE;STANDBY;false;false;false
87.5;0.005943500000001;-47.8987451;-1.91;0.0;0.0;100.0;0.001937163295224309;1.7971233129501343;-0.028905464336276054;0.02;0.0;-0.02;3;10;102.0;0.009999999776482582;0.009999999776482582;STABILIZE;STANDBY;false;false;false
88.0;0.005943599999998;-47.8987452;-1.87;0.0;0.0;100.0;0.002099625300616026;1.7973456382751465;-0.02887200005352497;0.01;0.0;-0.01;3;10;102.0;0.009999999776482582;0.009999999776482582;STABILIZE;STANDBY;false;false;false
88.5;0.0059437;-47.8987452;-1.85;0.0;0.0;100.0;0.002000940265133977;1.7972917556762695;-0.028796926140785217;0.0;-0.01;0.0;3;10;102.0;0.009999999776482582;0.009999999776482582;STABILIZE;STANDBY;false;false;false
89.0;0.005943800000001;-47.8987453;-1.82;0.0;0.0;100.0;0.0019335888791829348;1.7972520589828491;-0.028617264702916145;0.0;-0.01;0.0;3;10;102.0;0.009999999776482582;0.009999999776482582;STABILIZE;STANDBY;false;false;false
89.5;0.005943899999998;-47.8987454;-1.82;0.0;0.0;100.0;0.0018843533471226692;1.7972227334976196;-0.028563514351844788;0.01;0.0;-0.01;3;10;102.0;0.009999999776482582;0.009999999776482582;STABILIZE;STANDBY;false;false;false
90.0;0.005943899999998;-47.8987455;-1.82;0.0;0.0;100.0;0.0020488102454692125;1.7974088191986084;-0.028719641268253326;0.0;0.0;0.0;3;10;102.0;0.019999999552965164;0.019999999552965164;STABILIZE;STANDBY;false;false;false
90.5;0.005944;-47.8987456;-1.85;0.0;0.0;100.0;0.0021916029509156942;1.7972782850265503;-0.02864706516265869;0.01;-0.01;-0.01;3;10;102.0;0.009999999776482582;0.009999999776482582;STABILIZE;STANDBY;false;false;false
91.0;0.005944100000001;-47.8987456;-1.83;0.0;0.0;100.0;0.002014304744079709;1.7976056337356567;-0.028645483776926994;-0.01;-0.01;0.01;3;10;102.0;0.019999999552965164;0.019999999552965164;STABILIZE;STANDBY;false;false;false
91.5;0.005944199999998;-47.8987457;-1.78;0.0;0.0;100.0;0.0020867730490863323;1.7973464727401733;-0.028688441962003708;0.0;-0.02;0.0;3;10;102.0;0.029999999329447746;0.029999999329447746;STABILIZE;STANDBY;false;false;false
92.0;0.005944299999999;-47.8987457;-1.76;0.0;0.0;100.0;0.0020039875525981188;1.7979868650436401;-0.02871663309633732;0.02;0.01;-0.02;3;10;103.0;0.009999999776482582;0.009999999776482582;STABILIZE;STANDBY;false;false;false
92.5;0.005944199999998;-47.8987457;-1.77;0.0;0.0;100.0;0.0020372301805764437;1.7975924015045166;-0.028596827760338783;0.0;-0.01;0.0;3;10;102.0;0.009999999776482582;0.009999999776482582;STABILIZE;STANDBY;false;false;false
93.0;0.005944199999998;-47.8987456;-1.8;0.0;0.0;100.0;0.0019433621782809496;1.7974036931991577;-0.028614195063710213;0.01;-0.01;-0.01;3;10;102.0;0.009999999776482582;0.009999999776482582;STABILIZE;STANDBY;false;false;false
93.5;0.005944100000001;-47.8987455;-1.84;0.0;0.0;100.0;0.0019748408813029528;1.7974438667297363;-0.028690392151474953;-0.02;0.0;0.02;3;10;102.0;0.019999999552965164;0.019999999552965164;STABILIZE;STANDBY;false;false;false
94.0;0.005944;-47.8987454;-1.87;0.0;0.0;100.0;0.0020006552804261446;1.7973754405975342;-0.028703968971967697;0.01;-0.01;-0.01;3;10;102.0;0.0;0.0;STABILIZE;STANDBY;false;false;false
94.5;0.005943899999998;-47.8987453;-1.9;0.0;0.0;100.0;0.001970236422494054;1.7971954345703125;-0.028743673115968704;0.0;0.0;0.0;3;10;102.0;0.009999999776482582;0.009999999776482582;STABILIZE;STANDBY;false;false;false
95.0;0.005943899999998;-47.8987452;-1.94;0.0;0.0;100.0;0.001995335565879941;1.7976109981536865;-0.028636176139116287;0.01;-0.01;-0.01;3;10;102.0;0.009999999776482582;0.009999999776482582;STABILIZE;STANDBY;false;false;false
95.5;0.005943899999998;-47.8987451;-1.96;0.0;0.0;100.0;0.0019499913323670626;1.7975882291793823;-0.02877325564622879;-0.01;0.0;0.01;3;10;102.0;0.009999999776482582;0.009999999776482582;STABILIZE;STANDBY;false;false;false
96.0;0.005943800000001;-47.8987451;-2.0;0.0;0.0;100.0;0.0018401136621832848;1.7979763746261597;-0.028781091794371605;0.01;-0.01;-0.01;3;10;103.0;0.009999999776482582;0.009999999776482582;STABILIZE;STANDBY;false;false;false
96.5;0.0059437;-47.8987451;-2.03;0.0;0.0;100.0;0.0018617035821080208;1.7977149486541748;-0.028661200776696205;-0.01;-0.01;0.01;3;10;103.0;0.019999999552965164;0.019999999552965164;STABILIZE;STANDBY;false;false;false
97.0;0.005943599999998;-47.8987451;-2.05;0.0;0.0;100.0;0.0017765973461791873;1.7972780466079712;-0.028562450781464577;0.0;-0.03;0.0;3;10;102.0;0.009999999776482582;0.009999999776482582;STABILIZE;STANDBY;false;false;false
97.5;0.0059434;-47.8987451;-2.06;0.0;0.0;100.0;0.0018169254763051867;1.797182559967041;-0.028595365583896637;0.0;-0.01;0.0;3;10;102.0;0.009999999776482582;0.009999999776482582;STABILIZE;STANDBY;false;false;false
98.0;0.005943200000001;-47.8987452;-2.08;0.0;0.0;100.0;0.0017458320362493396;1.797353744506836;-0.02860494703054428;0.0;-0.02;0.0;3;10;102.0;0.009999999776482582;0.009999999776482582;STABILIZE;STANDBY;false;false;false
98.5;0.0059431;-47.8987453;-2.09;0.0;0.0;100.0;0.0018158749444410205;1.7972192764282227;-0.028621099889278412;0.01;0.0;-0.01;3;10;102.0;0.019999999552965164;0.019999999552965164;STABILIZE;STANDBY;false;false;false
99.0;0.005942900000001;-47.8987454;-2.1;0.0;0.0;100.0;0.0018318342044949532;1.79774808883667;-0.02871944010257721;0.02;0.0;-0.02;3;10;103.0;0.009999999776482582;0.009999999776482582;STABILIZE;STANDBY;false;false;false
99.5;0.005942600000001;-47.8987454;-2.09;0.0;0.0;100.0;0.0019443456549197435;1.7973909378051758;-0.028608810156583786;0.01;0.0;-0.01;3;10;102.0;0.009999999776482582;0.009999999776482582;STABILIZE;STANDBY;false;false;false
100.0;0.005942300000001;-47.8987454;-2.09;0.0;0.0;100.0;0.0019729111809283495;1.7978941202163696;-0.028531944379210472;0.01;0.0;-0.01;3;10;103.0;0.019999999552965164;0.019999999552965164;STABILIZE;STANDBY;false;false;false
100.5;0.005942000000001;-47.8987455;-2.07;0.0;0.0;100.0;0.0018253837479278445;1.797705054283142;-0.02849283255636692;-0.01;-0.01;0.01;3;10;103.0;0.029999999329447746;0.029999999329447746;STABILIZE;STANDBY;false;false;false
101.0;0.0059416;-47.8987455;-2.04;0.0;0.0;100.0;0.0017953169299289584;1.7975441217422485;-0.02856234274804592;0.0;0.0;0.0;3;10;102.0;0.0;0.0;STABILIZE;STANDBY;false;false;false
101.5;0.0059413;-47.8987455;-2.01;0.0;0.0;100.0;0.001784336636774242;1.7972493171691895;-0.02868838422000408;0.01;-0.01;-0.01;3;10;102.0;0.009999999776482582;0.009999999776482582;STABILIZE;STANDBY;false;false;false
102.0;0.005940899999999;-47.8987456;-1.97;0.0;0.0;100.0;0.0018128667725250125;1.7971059083938599;-0.028675789013504982;0.0;-0.02;0.0;3;10;102.0;0.019999999552965164;0.019999999552965164;STABILIZE;STANDBY;false;false;false
102.5;0.005940500000001;-47.8987456;-1.94;0.0;0.0;100.0;0.0019174676854163408;1.7967844009399414;-0.028676601126790047;0.02;-0.01;-0.02;3;10;102.0;0.019999999552965164;0.019999999552965164;STABILIZE;STANDBY;false;false;false
103.0;0.005940200000001;-47.8987456;-1.92;0.0;0.0;100.0;0.0018558623269200325;1.7970960140228271;-0.02861587144434452;0.01;-0.02;-0.01;3;10;102.0;0.009999999776482582;0.009999999776482582;STABILIZE;STANDBY;false;false;false
103.5;0.005939999999999;-47.8987457;-1.88;0.0;0.0;100.0;0.0019586209673434496;1.7972900867462158;-0.028778476640582085;0.0;-0.01;0.0;3;10;102.0;0.009999999776482582;0.009999999776482582;STABILIZE;STANDBY;false;false;false
104.0;0.0059398;-47.8987458;-1.84;0.0;0.0;100.0;0.0019291129428893328;1.7971287965774536;-0.028655510395765305;0.0;-0.01;0.0;3;10;102.0;0.009999999776482582;0.009999999776482582;STABILIZE;STANDBY;false;false;false
