time;lat;lng;alt;voltage;current;level;pitch;yaw;roll;vx;vy;vz;fixtype;satellitesvisible;heading;groundspeed;airspeed;mode;system-status;armed;is-armable;ekf-ok
0.0;-22.0059301;-47.8987772;-1.81;0.0;0.0;100.0;-0.014480662532150745;2.2424182891845703;0.01821332983672619;0.0;0.0;0.0;3;10;128.0;0.0;0.0;STABILIZE;STANDBY;false;false;false
0.5;-22.0059302;-47.8987777;-1.79;0.0;0.0;100.0;-0.014514980837702751;2.2427330017089844;0.01835773140192032;-0.01;-0.01;0.01;3;10;128.0;0.009999999776482582;0.009999999776482582;STABILIZE;STANDBY;false;false;false
1.0;-22.0059303;-47.8987781;-1.76;0.0;0.0;100.0;-0.01439602393656969;2.242501735687256;0.018491031602025032;0.0;0.0;0.0;3;10;128.0;0.0;0.0;STABILIZE;STANDBY;false;false;false
1.5;-22.0059305;-47.8987785;-1.75;0.0;0.0;100.0;-0.014396208338439465;2.2421088218688965;0.018611760810017586;0.0;0.0;0.0;3;10;128.0;0.0;0.0;STABILIZE;STANDBY;false;false;false
2.0;-22.0059307;-47.8987788;-1.74;0.0;0.0;100.0;-0.014338954351842403;2.241983413696289;0.018505867570638657;0.01;0.0;-0.01;3;10;128.0;0.009999999776482582;0.009999999776482582;STABILIZE;STANDBY;false;false;false
2.5;-22.0059308;-47.898779;-1.73;0.0;0.0;100.0;-0.014591586776077747;2.2425148487091064;0.01816975325345993;-0.01;-0.01;0.01;3;10;128.0;0.009999999776482582;0.009999999776482582;STABILIZE;STANDBY;false;false;false
3.0;-22.005931;-47.8987791;-1.69;0.0;0.0;100.0;-0.014563094824552536;2.2423129081726074;0.018260400742292404;0.0;0.0;0.0;3;10;128.0;0.009999999776482582;0.009999999776482582;STABILIZE;STANDBY;false;false;false
3.5;-22.0059311;-47.8987792;-1.72;0.0;0.0;100.0;-0.0145061444491148;2.242971181869507;0.01834506168961525;0.0;0.01;0.0;3;10;128.0;0.009999999776482582;0.009999999776482582;STABILIZE;STANDBY;false;false;false
4.0;-22.0059312;-47.8987794;-1.72;0.0;0.0;100.0;-0.01449483260512352;2.2426607608795166;0.018164990469813347;0.0;-0.02;0.0;3;10;128.0;0.009999999776482582;0.009999999776482582;STABILIZE;STANDBY;false;false;false
4.5;-22.0059313;-47.8987794;-1.72;0.0;0.0;100.0;-0.014485751278698444;2.2423176765441895;0.018321404233574867;-0.01;-0.02;0.01;3;10;128.0;0.0;0.0;STABILIZE;STANDBY;false;false;false
5.0;-22.0059315;-47.8987795;-1.72;0.0;0.0;100.0;-0.014457648620009422;2.241878032684326;0.01829996332526207;0.0;0.0;0.0;3;10;128.0;0.009999999776482582;0.009999999776482582;STABILIZE;STANDBY;false;false;false
5.5;-22.0059316;-47.8987795;-1.69;0.0;0.0;100.0;-0.014465690590441227;2.2422173023223877;0.018218275159597397;-0.01;-0.01;0.01;3;10;128.0;0.009999999776482582;0.009999999776482582;STABILIZE;STANDBY;false;false;false
6.0;-22.0059318;-47.8987795;-1.66;0.0;0.0;100.0;-0.01455698348581791;2.2418832778930664;0.018359197303652763;0.01;0.0;-0.01;3;10;128.0;0.009999999776482582;0.009999999776482582;STABILIZE;STANDBY;false;false;false
6.5;-22.0059319;-47.8987795;-1.65;0.0;0.0;100.0;-0.01448157150298357;2.2416326999664307;0.018224259838461876;0.0;-0.01;0.0;3;10;128.0;0.009999999776482582;0.009999999776482582;STABILIZE;STANDBY;false;false;false
7.0;-22.0059322;-47.8987794;-1.66;0.0;0.0;100.0;-0.014453215524554253;2.242234945297241;0.018456054851412773;0.01;0.0;-0.01;3;10;128.0;0.029999999329447746;0.009999999776482582;STABILIZE;STANDBY;false;false;false
7.5;-22.0059326;-47.8987793;-1.65;0.0;0.0;100.0;-0.014467294327914715;2.2419726848602295;0.018544035032391548;0.01;-0.01;-0.01;3;10;128.0;0.019999999552965164;0.019999999552965164;STABILIZE;STANDBY;false;false;false
8.0;-22.0059329;-47.8987792;-1.64;0.0;0.0;100.0;-0.014532485045492649;2.241602659225464;0.01849803887307644;-0.01;-0.02;0.01;3;10;128.0;0.009999999776482582;0.009999999776482582;STABILIZE;STANDBY;false;false;false
8.5;-22.0059333;-47.8987792;-1.63;0.0;0.0;100.0;-0.014530627988278866;2.2415013313293457;0.018702667206525803;0.0;-0.01;0.0;3;10;128.0;0.009999999776482582;0.009999999776482582;STABILIZE;STANDBY;false;false;false
9.0;-22.0059338;-47.8987792;-1.63;0.0;0.0;100.0;-0.014413745142519474;2.241507053375244;0.01865261234343052;0.01;0.0;-0.01;3;10;128.0;0.009999999776482582;0.009999999776482582;STABILIZE;STANDBY;false;false;false
9.5;-22.0059341;-47.8987792;-1.63;0.0;0.0;100.0;-0.014568347483873367;2.2424254417419434;0.01846729964017868;0.0;0.0;0.0;3;10;128.0;0.0;0.0;STABILIZE;STANDBY;false;false;false
10.0;-22.0059344;-47.8987792;-1.64;0.0;0.0;100.0;-0.014402600936591625;2.2421751022338867;0.01856161095201969;0.0;-0.02;0.0;3;10;128.0;0.009999999776482582;0.009999999776482582;STABILIZE;STANDBY;false;false;false
10.5;-22.0059347;-47.8987792;-1.69;0.0;0.0;100.0;-0.014455346390604973;2.2420461177825928;0.018532022833824158;0.0;-0.02;0.0;3;10;128.0;0.019999999552965164;0.019999999552965164;STABILIZE;STANDBY;false;false;false
11.0;-22.0059349;-47.8987791;-1.7;0.0;0.0;100.0;-0.014485417865216732;2.2421956062316895;0.018472539260983467;0.0;-0.01;0.0;3;10;128.0;0.009999999776482582;0.009999999776482582;STABILIZE;STANDBY;false;false;false
11.5;-22.0059351;-47.8987791;-1.69;0.0;0.0;100.0;-0.01443568430840969;2.2421345710754395;0.01826600171625614;-0.01;-0.01;0.01;3;10;128.0;0.009999999776482582;0.009999999776482582;STABILIZE;STANDBY;false;false;false
12.0;-22.0059352;-47.8987791;-1.69;0.0;0.0;100.0;-0.014449447393417358;2.2423298358917236;0.01823061890900135;0.0;0.0;0.0;3;10;128.0;0.009999999776482582;0.009999999776482582;STABILIZE;STANDBY;false;false;false
12.5;-22.0059353;-47.898779;-1.69;0.0;0.0;100.0;-0.014571908861398697;2.242353916168213;0.01825016178190708;-0.01;0.0;0.01;3;10;128.0;0.009999999776482582;0.009999999776482582;STABILIZE;STANDBY;false;false;false
13.0;-22.0059354;-47.8987789;-1.71;0.0;0.0;100.0;-0.014646881259977818;2.2422451972961426;0.01838705874979496;-0.01;-0.02;0.01;3;10;128.0;0.019999999552965164;0.019999999552965164;STABILIZE;STANDBY;false;false;false
13.5;-22.0059355;-47.8987789;-1.71;0.0;0.0;100.0;-0.014457663521170616;2.242509126663208;0.018350400030612946;0.0;-0.01;0.0;3;10;128.0;0.009999999776482582;0.009999999776482582;STABILIZE;STANDBY;false;false;false
14.0;-22.0059356;-47.8987787;-1.67;0.0;0.0;100.0;-0.01424960047006607;2.242110252380371;0.01828262209892273;0.0;-0.01;0.0;3;10;128.0;0.009999999776482582;0.009999999776482582;STABILIZE;STANDBY;false;false;false
14.5;-22.0059357;-47.8987787;-1.66;0.0;0.0;100.0;-0.014502003788948059;2.2420194149017334;0.018174130469560623;0.0;-0.02;0.0;3;10;128.0;0.009999999776482582;0.009999999776482582;STABILIZE;STANDBY;false;false;false
15.0;-22.0059359;-47.8987786;-1.67;0.0;0.0;100.0;-0.014609958045184612;2.242675304412842;0.0182978305965662;0.0;0.0;0.0;3;10;128.0;0.009999999776482582;0.009999999776482582;STABILIZE;STANDBY;false;false;false
15.5;-22.0059359;-47.8987786;-1.66;0.0;0.0;100.0;-0.014510830864310265;2.2426087856292725;0.01842491142451763;0.01;-0.01;-0.01;3;10;128.0;0.009999999776482582;0.009999999776482582;STABILIZE;STANDBY;false;false;false
16.0;-22.0059361;-47.8987786;-1.66;0.0;0.0;100.0;-0.0145112294703722;2.2421998977661133;0.0183272585272789;0.0;0.0;0.0;3;10;128.0;0.009999999776482582;0.009999999776482582;STABILIZE;STANDBY;false;false;false
16.5;-22.0059363;-47.8987786;-1.65;0.0;0.0;100.0;-0.014369338750839233;2.2421112060546875;0.018223019316792488;0.0;-0.01;0.0;3;10;128.0;0.009999999776482582;0.009999999776482582;STABILIZE;STANDBY;false;false;false
17.0;-22.0059365;-47.8987786;-1.62;0.0;0.0;100.0;-0.014365624636411667;2.2416043281555176;0.01824900135397911;0.0;-0.01;0.0;3;10;128.0;0.009999999776482582;0.009999999776482582;STABILIZE;STANDBY;false;false;false
17.5;-22.0059366;-47.8987787;-1.59;0.0;0.0;100.0;-0.014448508620262146;2.241828203201294;0.01827969215810299;0.0;-0.01;0.0;3;10;128.0;0.029999999329447746;0.029999999329447746;STABILIZE;STANDBY;false;false;false
18.0;-22.0059368;-47.8987788;-1.58;0.0;0.0;100.0;-0.014425703324377537;2.2421531677246094;0.018291791900992393;0.01;0.0;-0.01;3;10;128.0;0.0;0.0;STABILIZE;STANDBY;false;false;false
18.5;-22.0059369;-47.898779;-1.53;0.0;0.0;100.0;-0.014523412100970745;2.242548704147339;0.01854659803211689;0.0;-0.03;0.0;3;10;128.0;0.019999999552965164;0.019999999552965164;STABILIZE;STANDBY;false;false;false
19.0;-22.0059371;-47.8987793;-1.5;0.0;0.0;100.0;-0.01459455769509077;2.2417030334472656;0.018519101664423943;-0.01;-0.01;0.01;3;10;128.0;0.009999999776482582;0.009999999776482582;STABILIZE;STANDBY;false;false;false
19.5;-22.0059372;-47.8987795;-1.49;0.0;0.0;100.0;-0.014529571868479252;2.242145299911499;0.018465889617800713;0.0;-0.02;0.0;3;10;128.0;0.009999999776482582;0.009999999776482582;STABILIZE;STANDBY;false;false;false
20.0;-22.0059373;-47.8987796;-1.5;0.0;0.0;100.0;-0.014486567117273808;2.241497278213501;0.018501996994018555;0.01;-0.02;-0.01;3;10;128.0;0.019999999552965164;0.019999999552965164;STABILIZE;STANDBY;false;false;false
20.5;-22.0059376;-47.8987799;-1.51;0.0;0.0;100.0;-0.014667184092104435;2.2415943145751953;0.01840350218117237;0.0;-0.01;0.0;3;10;128.0;0.019999999552965164;0.019999999552965164;STABILIZE;STANDBY;false;false;false
21.0;-22.0059381;-47.89878;-1.49;0.0;0.0;100.0;-0.014612405560910702;2.2415096759796143;0.018260695040225983;0.01;0.01;-0.01;3;10;128.0;0.009999999776482582;0.009999999776482582;STABILIZE;STANDBY;false;false;false
21.5;-22.0059385;-47.89878;-1.46;0.0;0.0;100.0;-0.014412730000913143;2.2417025566101074;0.018258407711982727;0.01;0.0;-0.01;3;10;128.0;0.009999999776482582;0.009999999776482582;STABILIZE;STANDBY;false;false;false
22.0;-22.0059388;-47.8987799;-1.46;0.0;0.0;100.0;-0.014465506188571453;2.2413251399993896;0.018430016934871674;0.0;-0.01;0.0;3;10;128.0;0.009999999776482582;0.009999999776482582;STABILIZE;STANDBY;false;false;false
22.5;-22.0059392;-47.8987799;-1.43;0.0;0.0;100.0;-0.014509879052639008;2.241166830062866;0.018252180889248848;0.0;-0.01;0.0;3;10;128.0;0.009999999776482582;0.009999999776482582;STABILIZE;STANDBY;false;false;false
23.0;-22.0059395;-47.8987799;-1.43;0.0;0.0;100.0;-0.014414471574127674;2.2412734031677246;0.018473302945494652;0.0;-0.02;0.0;3;10;128.0;0.019999999552965164;0.019999999552965164;STABILIZE;STANDBY;false;false;false
23.5;-22.0059397;-47.8987799;-1.43;0.0;0.0;100.0;-0.014422939158976078;2.241957664489746;0.018372895196080208;-0.01;-0.02;0.01;3;10;128.0;0.009999999776482582;0.009999999776482582;STABILIZE;STANDBY;false;false;false
24.0;-22.00594;-47.89878;-1.43;0.0;0.0;100.0;-0.014441139996051788;2.241748332977295;0.01822805590927601;0.0;-0.01;0.0;3;10;128.0;0.009999999776482582;0.009999999776482582;STABILIZE;STANDBY;false;false;false
24.5;-22.0059402;-47.89878;-1.44;0.0;0.0;100.0;-0.014340276829898357;2.2418923377990723;0.018321901559829712;0.0;0.0;0.0;3;10;128.0;0.009999999776482582;0.009999999776482582;STABILIZE;STANDBY;false;false;false
25.0;-22.0059402;-47.89878;-1.47;0.0;0.0;100.0;-0.01435649674385786;2.24159836769104;0.018440015614032745;0.0;-0.01;0.0;3;10;128.0;0.019999999552965164;0.019999999552965164;STABILIZE;STANDBY;false;false;false
25.5;-22.0059403;-47.89878;-1.48;0.0;0.0;100.0;-0.01434760820120573;2.2413690090179443;0.018461979925632477;0.0;-0.01;0.0;3;10;128.0;0.009999999776482582;0.009999999776482582;STABILIZE;STANDBY;false;false;false
26.0;-22.0059403;-47.8987799;-1.49;0.0;0.0;100.0;-0.01430768147110939;2.241663694381714;0.018432578071951866;-0.01;0.0;0.01;3;10;128.0;0.009999999776482582;0.009999999776482582;STABILIZE;STANDBY;false;false;false
26.5;-22.0059402;-47.8987799;-1.5;0.0;0.0;100.0;-0.014400278218090534;2.2422068119049072;0.01858367584645748;0.0;-0.02;0.0;3;10;128.0;0.019999999552965164;0.019999999552965164;STABILIZE;STANDBY;false;false;false
27.0;-22.0059402;-47.8987798;-1.48;0.0;0.0;100.0;-0.014483162201941013;2.2421979904174805;0.018372876569628716;0.01;0.01;-0.01;3;10;128.0;0.009999999776482582;0.009999999776482582;STABILIZE;STANDBY;false;false;false
27.5;-22.0059403;-47.8987799;-1.48;0.0;0.0;100.0;-0.014424660243093967;2.2422070503234863;0.01835579052567482;0.0;-0.01;0.0;3;10;128.0;0.009999999776482582;0.009999999776482582;STABILIZE;STANDBY;false;false;false
28.0;-22.0059403;-47.89878;-1.48;0.0;0.0;100.0;-0.014470898546278477;2.2429757118225098;0.018351048231124878;0.0;-0.01;0.0;3;10;128.0;0.009999999776482582;0.009999999776482582;STABILIZE;STANDBY;false;false;false
28.5;-22.0059404;-47.8987801;-1.47;0.0;0.0;100.0;-0.014510896056890488;2.242622137069702;0.018368741497397423;0.0;-0.02;0.0;3;10;128.0;0.019999999552965164;0.019999999552965164;STABILIZE;STANDBY;false;false;false
29.0;-22.0059406;-47.8987802;-1.46;0.0;0.0;100.0;-0.014413599856197834;2.242173910140991;0.01835271343588829;0.0;-0.01;0.0;3;10;128.0;0.029999999329447746;0.029999999329447746;STABILIZE;STANDBY;false;false;false
29.5;-22.0059407;-47.8987803;-1.45;0.0;0.0;100.0;-0.01436968520283699;2.2417547702789307;0.018374457955360413;0.02;0.0;-0.02;3;10;128.0;0.019999999552965164;0.019999999552965164;STABILIZE;STANDBY;false;false;false
30.0;-22.0059409;-47.8987804;-1.47;0.0;0.0;100.0;-0.014595665968954563;2.242269277572632;0.018404236063361168;0.01;-0.01;-0.01;3;10;128.0;0.019999999552965164;0.019999999552965164;STABILIZE;STANDBY;false;false;false
30.5;-22.005941;-47.8987804;-1.49;0.0;0.0;100.0;-0.014699751511216164;2.242971897125244;0.018643487244844437;0.0;-0.01;0.0;3;10;128.0;0.009999999776482582;0.009999999776482582;STABILIZE;STANDBY;false;false;false
31.0;-22.0059411;-47.8987805;-1.51;0.0;0.0;100.0;-0.014668735675513744;2.24251651763916;0.018468482419848442;0.0;0.01;0.0;3;10;128.0;0.0;0.0;STABILIZE;STANDBY;false;false;false
31.5;-22.0059412;-47.8987806;-1.52;0.0;0.0;100.0;-0.014742724597454071;2.242220878601074;0.018470225855708122;0.0;-0.02;0.0;3;10;128.0;0.009999999776482582;0.009999999776482582;STABILIZE;STANDBY;false;false;false
32.0;-22.0059414;-47.8987808;-1.52;0.0;0.0;100.0;-0.014680257067084312;2.2421255111694336;0.018635889515280724;0.0;-0.03;0.0;3;10;128.0;0.029999999329447746;0.029999999329447746;STABILIZE;STANDBY;false;false;false
32.5;-22.0059415;-47.8987808;-1.55;0.0;0.0;100.0;-0.014686591923236847;2.242053508758545;0.018534330651164055;0.0;-0.01;0.0;3;10;128.0;0.009999999776482582;0.009999999776482582;STABILIZE;STANDBY;false;false;false
33.0;-22.0059417;-47.8987809;-1.57;0.0;0.0;100.0;-0.014691891148686409;2.2424380779266357;0.018472502008080482;-0.02;-0.01;0.02;3;9;128.0;0.019999999552965164;0.019999999552965164;STABILIZE;STANDBY;false;false;false
33.5;-22.0059418;-47.8987809;-1.56;0.0;0.0;100.0;-0.014613605104386806;2.242349624633789;0.01838020049035549;-0.01;0.0;0.01;3;9;128.0;0.0;0.0;STABILIZE;STANDBY;false;false;false
34.0;-22.0059419;-47.8987809;-1.58;0.0;0.0;100.0;-0.014473882503807545;2.2426295280456543;0.018306106328964233;0.0;0.0;0.0;3;9;128.0;0.019999999552965164;0.019999999552965164;STABILIZE;STANDBY;false;false;false
34.5;-22.005942;-47.8987808;-1.6;0.0;0.0;100.0;-0.014588565565645695;2.2428057193756104;0.01845374144613743;0.0;-0.01;0.0;3;9;128.0;0.009999999776482582;0.009999999776482582;STABILIZE;STANDBY;false;false;false
35.0;-22.0059421;-47.8987809;-1.58;0.0;0.0;100.0;-0.01447331439703703;2.2426319122314453;0.01855733059346676;0.0;-0.01;0.0;3;9;128.0;0.009999999776482582;0.009999999776482582;STABILIZE;STANDBY;false;false;false
35.5;-22.0059422;-47.8987809;-1.58;0.0;0.0;100.0;-0.014456521719694138;2.2425312995910645;0.018497154116630554;0.0;-0.01;0.0;3;9;128.0;0.019999999552965164;0.019999999552965164;STABILIZE;STANDBY;false;false;false
36.0;-22.0059423;-47.898781;-1.58;0.0;0.0;100.0;-0.014475795440375805;2.2427334785461426;0.018572073429822922;-0.01;-0.01;0.01;3;9;128.0;0.019999999552965164;0.019999999552965164;STABILIZE;STANDBY;false;false;false
36.5;-22.0059423;-47.8987811;-1.59;0.0;0.0;100.0;-0.014535344205796719;2.2423858642578125;0.018547534942626953;0.0;0.02;0.0;3;9;128.0;0.019999999552965164;0.019999999552965164;STABILIZE;STANDBY;false;false;false
37.0;-22.0059424;-47.8987812;-1.61;0.0;0.0;100.0;-0.014500118792057037;2.24269962310791;0.018481222912669182;0.0;-0.01;0.0;3;9;128.0;0.019999999552965164;0.019999999552965164;STABILIZE;STANDBY;false;false;false
37.5;-22.0059424;-47.8987814;-1.63;0.0;0.0;100.0;-0.014479159377515316;2.242055654525757;0.0185801200568676;0.0;-0.01;0.0;3;9;128.0;0.009999999776482582;0.009999999776482582;STABILIZE;STANDBY;false;false;false
38.0;-22.0059424;-47.8987816;-1.65;0.0;0.0;100.0;-0.01457536593079567;2.2421369552612305;0.018682658672332764;-0.01;-0.01;0.01;3;9;128.0;0.029999999329447746;0.029999999329447746;STABILIZE;STANDBY;false;false;false
38.5;-22.0059424;-47.8987818;-1.66;0.0;0.0;100.0;-0.014550252817571163;2.242065906524658;0.018562830984592438;0.0;-0.03;0.0;3;9;128.0;0.029999999329447746;0.029999999329447746;STABILIZE;STANDBY;false;false;false
39.0;-22.0059424;-47.8987819;-1.67;0.0;0.0;100.0;-0.01443607360124588;2.241330623626709;0.018551189452409744;0.02;-0.02;-0.02;3;9;128.0;0.009999999776482582;0.009999999776482582;STABILIZE;STANDBY;false;false;false
39.5;-22.0059423;-47.8987821;-1.65;0.0;0.0;100.0;-0.014323348179459572;2.242011547088623;0.018561528995633125;0.0;-0.01;0.0;3;9;128.0;0.019999999552965164;0.019999999552965164;STABILIZE;STANDBY;false;false;false
40.0;-22.0059421;-47.8987823;-1.67;0.0;0.0;100.0;-0.014558989554643631;2.242084503173828;0.01872512698173523;0.01;0.01;-0.01;3;9;128.0;0.009999999776482582;0.009999999776482582;STABILIZE;STANDBY;false;false;false
40.5;-22.0059418;-47.8987825;-1.69;0.0;0.0;100.0;-0.014589970000088215;2.242041826248169;0.018664170056581497;0.01;0.01;-0.01;3;9;128.0;0.009999999776482582;0.009999999776482582;STABILIZE;STANDBY;false;false;false
41.0;-22.0059415;-47.8987826;-1.68;0.0;0.0;100.0;-0.014473400078713894;2.242271661758423;0.0184833575040102;0.0;-0.02;0.0;3;9;128.0;0.029999999329447746;0.029999999329447746;STABILIZE;STANDBY;false;false;false
41.5;-22.0059412;-47.8987827;-1.66;0.0;0.0;100.0;-0.014389051124453545;2.2417497634887695;0.018482644110918045;0.0;-0.02;0.0;3;9;128.0;0.0;0.0;STABILIZE;STANDBY;false;false;false
42.0;-22.0059407;-47.8987829;-1.64;0.0;0.0;100.0;-0.01446248684078455;2.241565704345703;0.018600618466734886;-0.01;-0.02;0.01;3;9;128.0;0.019999999552965164;0.019999999552965164;STABILIZE;STANDBY;false;false;false
42.5;-22.0059404;-47.898783;-1.65;0.0;0.0;100.0;-0.014411156065762043;2.2418360710144043;0.018488503992557526;0.0;-0.02;0.0;3;9;128.0;0.019999999552965164;0.019999999552965164;STABILIZE;STANDBY;false;false;false
43.0;-22.00594;-47.8987832;-1.63;0.0;0.0;100.0;-0.014381352812051773;2.241654396057129;0.01852257549762726;0.01;0.02;-0.01;3;9;128.0;0.019999999552965164;0.019999999552965164;STABILIZE;STANDBY;false;false;false
43.5;-22.0059397;-47.8987833;-1.64;0.0;0.0;100.0;-0.0146601228043437;2.242379903793335;0.01856030523777008;0.0;-0.02;0.0;3;9;128.0;0.019999999552965164;0.019999999552965164;STABILIZE;STANDBY;false;false;false
44.0;-22.0059392;-47.8987834;-1.65;0.0;0.0;100.0;-0.014448152855038643;2.2421882152557373;0.018691381439566612;0.01;0.01;-0.01;3;9;128.0;0.009999999776482582;0.009999999776482582;STABILIZE;STANDBY;false;false;false
44.5;-22.0059389;-47.8987835;-1.65;0.0;0.0;100.0;-0.01456226035952568;2.242946147918701;0.01872869022190571;-0.01;-0.01;0.01;3;9;128.0;0.0;0.0;STABILIZE;STANDBY;false;false;false
45.0;-22.0059385;-47.8987835;-1.64;0.0;0.0;100.0;-0.01451713778078556;2.242934226989746;0.018553471192717552;0.0;-0.01;0.0;3;10;128.0;0.009999999776482582;0.009999999776482582;STABILIZE;STANDBY;false;false;false
45.5;-22.0059382;-47.8987836;-1.62;0.0;0.0;100.0;-0.014561185613274574;2.2425379753112793;0.018736708909273148;0.0;-0.01;0.0;3;10;128.0;0.009999999776482582;0.009999999776482582;STABILIZE;STANDBY;false;false;false
46.0;-22.0059379;-47.8987836;-1.58;0.0;0.0;100.0;-0.014560539275407791;2.2427141666412354;0.01870528794825077;-0.01;-0.03;0.01;3;10;128.0;0.009999999776482582;0.009999999776482582;STABILIZE;STANDBY;false;false;false
46.5;-22.0059376;-47.8987838;-1.58;0.0;0.0;100.0;-0.01460918691009283;2.242295742034912;0.018573040142655373;0.0;0.01;0.0;3;10;128.0;0.009999999776482582;0.009999999776482582;STABILIZE;STANDBY;false;false;false
47.0;-22.0059375;-47.8987839;-1.56;0.0;0.0;100.0;-0.014751944690942764;2.2424745559692383;0.01846582442522049;-0.01;0.01;0.01;3;10;128.0;0.009999999776482582;0.009999999776482582;STABILIZE;STANDBY;false;false;false
47.5;-22.0059373;-47.8987841;-1.55;0.0;0.0;100.0;-0.014776359312236309;2.2426819801330566;0.01849423162639141;0.0;-0.02;0.0;3;10;128.0;0.019999999552965164;0.019999999552965164;STABILIZE;STANDBY;false;false;false
48.0;-22.0059371;-47.8987844;-1.52;0.0;0.0;100.0;-0.014768109656870365;2.2423205375671387;0.018632518127560616;0.0;-0.01;0.0;3;10;128.0;0.009999999776482582;0.009999999776482582;STABILIZE;STANDBY;false;false;false
48.5;-22.005937;-47.8987848;-1.51;0.0;0.0;100.0;-0.01479209866374731;2.2420687675476074;0.018356306478381157;0.0;-0.01;0.0;3;10;128.0;0.009999999776482582;0.009999999776482582;STABILIZE;STANDBY;false;false;false
49.0;-22.0059369;-47.8987851;-1.51;0.0;0.0;100.0;-0.014508035033941269;2.242250680923462;0.018384957686066628;0.0;-0.03;0.0;3;10;128.0;0.019999999552965164;0.019999999552965164;STABILIZE;STANDBY;false;false;false
49.5;-22.0059369;-47.8987856;-1.49;0.0;0.0;100.0;-0.014583742246031761;2.242539167404175;0.018479296937584877;0.0;0.01;0.0;3;10;128.0;0.0;0.0;STABILIZE;STANDBY;false;false;false
50.0;-22.0059368;-47.898786;-1.5;0.0;0.0;100.0;-0.014794453978538513;2.2426793575286865;0.018486369401216507;0.0;-0.01;0.0;3;10;128.0;0.029999999329447746;0.029999999329447746;STABILIZE;STANDBY;false;false;false
50.5;-22.0059368;-47.8987866;-1.51;0.0;0.0;100.0;-0.014682834967970848;2.2426486015319824;0.018446754664182663;0.0;0.01;0.0;3;10;128.0;0.009999999776482582;0.009999999776482582;STABILIZE;STANDBY;false;false;false
51.0;-22.0059368;-47.8987871;-1.53;0.0;0.0;100.0;-0.014518149197101593;2.2423415184020996;0.018519677221775055;0.0;-0.02;0.0;3;10;128.0;0.019999999552965164;0.019999999552965164;STABILIZE;STANDBY;false;false;false
51.5;-22.0059368;-47.8987877;-1.56;0.0;0.0;100.0;-0.014532330445945263;2.2426376342773438;0.018412355333566666;0.0;-0.02;0.0;3;10;128.0;0.029999999329447746;0.029999999329447746;STABILIZE;STANDBY;false;false;false
52.0;-22.0059367;-47.898788;-1.54;0.0;0.0;100.0;-0.014377100393176079;2.2425734996795654;0.018503114581108093;0.0;-0.02;0.0;3;10;128.0;0.019999999552965164;0.019999999552965164;STABILIZE;STANDBY;false;false;false
52.5;-22.0059366;-47.8987884;-1.52;0.0;0.0;100.0;-0.01461207028478384;2.2429652214050293;0.018363291397690773;0.0;-0.03;0.0;3;10;128.0;0.019999999552965164;0.019999999552965164;STABILIZE;STANDBY;false;false;false
53.0;-22.0059364;-47.8987889;-1.49;0.0;0.0;100.0;-0.014599624089896679;2.242579936981201;0.018457869067788124;0.0;0.01;0.0;3;10;128.0;0.019999999552965164;0.019999999552965164;STABILIZE;STANDBY;false;false;false
53.5;-22.0059363;-47.8987892;-1.47;0.0;0.0;100.0;-0.014523736201226711;2.2428133487701416;0.01850203238427639;0.0;-0.02;0.0;3;9;128.0;0.0;0.0;STABILIZE;STANDBY;false;false;false
54.0;-22.0059363;-47.8987896;-1.46;0.0;0.0;100.0;-0.014544530771672726;2.24251389503479;0.01845676079392433;0.0;0.01;0.0;3;9;128.0;0.009999999776482582;0.009999999776482582;STABILIZE;STANDBY;false;false;false
54.5;-22.0059362;-47.8987898;-1.45;0.0;0.0;100.0;-0.014514210633933544;2.2424116134643555;0.0186588354408741;-0.01;-0.03;0.01;3;9;128.0;0.019999999552965164;0.019999999552965164;STABILIZE;STANDBY;false;false;false
55.0;-22.0059363;-47.8987901;-1.43;0.0;0.0;100.0;-0.01453214418143034;2.242177963256836;0.01851956732571125;-0.01;-0.03;0.01;3;9;128.0;0.029999999329447746;0.029999999329447746;STABILIZE;STANDBY;false;false;false
55.5;-22.0059363;-47.8987902;-1.4;0.0;0.0;100.0;-0.014364384114742279;2.241670608520508;0.018467513844370842;0.0;-0.02;0.0;3;9;128.0;0.019999999552965164;0.019999999552965164;STABILIZE;STANDBY;false;false;false
56.0;-22.0059363;-47.8987903;-1.42;0.0;0.0;100.0;-0.014377519488334656;2.2421364784240723;0.018395230174064636;0.0;0.0;0.0;3;9;128.0;0.0;0.0;STABILIZE;STANDBY;false;false;false
56.5;-22.0059364;-47.8987903;-1.4;0.0;0.0;100.0;-0.014574917033314705;2.242206573486328;0.0184276532381773;-0.01;0.0;0.01;3;9;128.0;0.019999999552965164;0.019999999552965164;STABILIZE;STANDBY;false;false;false
57.0;-22.0059363;-47.8987903;-1.38;0.0;0.0;100.0;-0.01448467280715704;2.2418429851531982;0.018461335450410843;-0.01;0.01;0.01;3;9;128.0;0.019999999552965164;0.019999999552965164;STABILIZE;STANDBY;false;false;false
57.5;-22.0059363;-47.8987902;-1.31;0.0;0.0;100.0;-0.014582909643650055;2.242086410522461;0.018504908308386803;-0.01;-0.03;0.01;3;9;128.0;0.019999999552965164;0.019999999552965164;STABILIZE;STANDBY;false;false;false
58.0;-22.0059363;-47.8987901;-1.3;0.0;0.0;100.0;-0.01440656278282404;2.2419118881225586;0.018628636375069618;-0.01;-0.01;0.01;3;9;128.0;0.019999999552965164;0.019999999552965164;STABILIZE;STANDBY;false;false;false
58.5;-22.0059363;-47.8987899;-1.28;0.0;0.0;100.0;-0.014402260072529316;2.242483615875244;0.01864820159971714;-0.01;0.0;0.01;3;9;128.0;0.009999999776482582;0.009999999776482582;STABILIZE;STANDBY;false;false;false
59.0;-22.0059362;-47.8987898;-1.3;0.0;0.0;100.0;-0.014441264793276787;2.242210865020752;0.01858619414269924;-0.01;-0.02;0.01;3;9;128.0;0.009999999776482582;0.03999999910593033;STABILIZE;STANDBY;false;false;false
59.5;-22.0059362;-47.8987898;-1.31;0.0;0.0;100.0;-0.014409496448934078;2.2423503398895264;0.018703090026974678;0.01;0.0;-0.01;3;9;128.0;0.019999999552965164;0.019999999552965164;STABILIZE;STANDBY;false;false;false
60.0;-22.0059362;-47.8987898;-1.32;0.0;0.0;100.0;-0.014507254585623741;2.242838144302368;0.018736986443400383;0.0;-0.03;0.0;3;8;128.0;0.029999999329447746;0.029999999329447746;STABILIZE;STANDBY;false;false;false
60.5;-22.0059363;-47.8987898;-1.32;0.0;0.0;100.0;-0.014403379522264004;2.2421350479125977;0.018730787560343742;-0.01;-0.02;0.01;3;8;128.0;0.019999999552965164;0.019999999552965164;STABILIZE;STANDBY;false;false;false
61.0;-22.0059364;-47.8987899;-1.33;0.0;0.0;100.0;-0.014389706775546074;2.242192268371582;0.018614964559674263;0.01;-0.01;-0.01;3;8;128.0;0.0;0.0;STABILIZE;STANDBY;false;false;false
61.5;-22.0059363;-47.8987899;-1.32;0.0;0.0;100.0;-0.014236997812986374;2.2421181201934814;0.018623296171426773;-0.01;-0.02;0.01;3;8;128.0;0.03999999910593033;0.03999999910593033;STABILIZE;STANDBY;false;false;false
62.0;-22.0059363;-47.8987899;-1.31;0.0;0.0;100.0;-0.014290465973317623;2.241780996322632;0.018459852784872055;0.0;-0.02;0.0;3;8;128.0;0.019999999552965164;0.019999999552965164;STABILIZE;STANDBY;false;false;false
62.5;-22.0059362;-47.8987899;-1.32;0.0;0.0;100.0;-0.014373674988746643;2.242806911468506;0.018573466688394547;-0.01;0.0;0.01;3;8;128.0;0.009999999776482582;0.009999999776482582;STABILIZE;STANDBY;false;false;false
63.0;-22.0059362;-47.8987899;-1.33;0.0;0.0;100.0;-0.01450449600815773;2.242765426635742;0.018646346405148506;-0.01;-0.01;0.01;3;8;128.0;0.019999999552965164;0.019999999552965164;STABILIZE;STANDBY;false;false;false
63.5;-22.0059361;-47.89879;-1.33;0.0;0.0;100.0;-0.014491512440145016;2.2431771755218506;0.01879940740764141;0.0;0.02;0.0;3;8;128.0;0.019999999552965164;0.019999999552965164;STABILIZE;STANDBY;false;false;false
64.0;-22.0059361;-47.8987901;-1.32;0.0;0.0;100.0;-0.014383019879460335;2.242891788482666;0.018701979890465736;-0.01;-0.02;0.01;3;8;128.0;0.009999999776482582;0.009999999776482582;STABILIZE;STANDBY;false;false;false
64.5;-22.005936;-47.8987901;-1.31;0.0;0.0;100.0;-0.014617204666137695;2.2424397468566895;0.018709739670157433;0.01;-0.02;-0.01;3;8;128.0;0.019999999552965164;0.019999999552965164;STABILIZE;STANDBY;false;false;false
65.0;-22.005936;-47.8987903;-1.31;0.0;0.0;100.0;-0.01445997878909111;2.242504358291626;0.018655696883797646;0.0;-0.02;0.0;3;8;128.0;0.019999999552965164;0.019999999552965164;STABILIZE;STANDBY;false;false;false
65.5;-22.0059359;-47.8987904;-1.31;0.0;0.0;100.0;-0.014437129721045494;2.242471933364868;0.01878480799496174;-0.01;-0.02;0.01;3;8;128.0;0.019999999552965164;0.019999999552965164;STABILIZE;STANDBY;false;false;false
66.0;-22.0059359;-47.8987906;-1.3;0.0;0.0;100.0;-0.014454569667577744;2.2430150508880615;0.018667006865143776;-0.01;0.03;0.01;3;8;128.0;0.029999999329447746;0.029999999329447746;STABILIZE;STANDBY;false;false;false
66.5;-22.0059358;-47.8987908;-1.28;0.0;0.0;100.0;-0.014315331354737282;2.2430248260498047;0.0185073334723711;0.0;-0.02;0.0;3;8;128.0;0.019999999552965164;0.019999999552965164;STABILIZE;STANDBY;false;false;false
67.0;-22.0059357;-47.8987911;-1.28;0.0;0.0;100.0;-0.01463853009045124;2.243018388748169;0.018582968041300774;0.01;0.01;-0.01;3;8;128.0;0.019999999552965164;0.019999999552965164;STABILIZE;STANDBY;false;false;false
67.5;-22.0059356;-47.8987913;-1.28;0.0;0.0;100.0;-0.014651668258011341;2.242713451385498;0.018617218360304832;-0.02;-0.02;0.02;3;8;128.0;0.019999999552965164;0.019999999552965164;STABILIZE;STANDBY;false;false;false
68.0;-22.0059354;-47.8987915;-1.25;0.0;0.0;100.0;-0.014626173302531242;2.2422046661376953;0.01876792125403881;-0.01;-0.01;0.01;3;8;128.0;0.009999999776482582;0.009999999776482582;STABILIZE;STANDBY;false;false;false
68.5;-22.0059353;-47.8987917;-1.25;0.0;0.0;100.0;-0.01461017969995737;2.242244243621826;0.01878693513572216;0.0;-0.02;0.0;3;8;128.0;0.009999999776482582;0.009999999776482582;STABILIZE;STANDBY;false;false;false
69.0;-22.0059351;-47.8987918;-1.24;0.0;0.0;100.0;-0.01473991572856903;2.243025779724121;0.018543444573879242;0.0;-0.03;0.0;3;8;128.0;0.019999999552965164;0.019999999552965164;STABILIZE;STANDBY;false;false;false
69.5;-22.0059348;-47.8987921;-1.25;0.0;0.0;100.0;-0.014710272662341595;2.2432174682617188;0.018740039318799973;0.01;0.02;-0.01;3;8;128.0;0.019999999552965164;0.019999999552965164;STABILIZE;STANDBY;false;false;false
70.0;-22.0059346;-47.8987923;-1.27;0.0;0.0;100.0;-0.014511166140437126;2.2433509826660156;0.01860813796520233;0.0;-0.02;0.0;3;8;128.0;0.029999999329447746;0.029999999329447746;STABILIZE;STANDBY;false;false;false
70.5;-22.0059342;-47.8987925;-1.27;0.0;0.0;100.0;-0.014387581497430801;2.242746114730835;0.018691333010792732;0.01;0.0;-0.01;3;8;128.0;0.009999999776482582;0.009999999776482582;STABILIZE;STANDBY;false;false;false
71.0;-22.0059339;-47.8987927;-1.26;0.0;0.0;100.0;-0.014391856268048286;2.2423558235168457;0.018602965399622917;0.0;0.0;0.0;3;8;128.0;0.0;0.0;STABILIZE;STANDBY;false;false;false
71.5;-22.0059334;-47.898793;-1.27;0.0;0.0;100.0;-0.01463625580072403;2.2422351837158203;0.01858309656381607;-0.01;-0.02;0.01;3;8;128.0;0.019999999552965164;0.019999999552965164;STABILIZE;STANDBY;false;false;false
72.0;-22.005933;-47.8987931;-1.27;0.0;0.0;100.0;-0.014591428451240063;2.2419376373291016;0.01853802055120468;0.01;-0.01;-0.01;3;8;128.0;0.019999999552965164;0.019999999552965164;STABILIZE;STANDBY;false;false;false
72.5;-22.0059325;-47.8987931;-1.27;0.0;0.0;100.0;-0.014540870673954487;2.24271821975708;0.018450386822223663;0.0;0.0;0.0;3;9;128.0;0.0;0.0;STABILIZE;STANDBY;false;false;false
73.0;-22.0059321;-47.8987931;-1.26;0.0;0.0;100.0;-0.014646324329078197;2.242128372192383;0.018424438312649727;0.01;-0.01;-0.01;3;9;128.0;0.009999999776482582;0.009999999776482582;STABILIZE;STANDBY;false;false;false
73.5;-22.0059316;-47.8987931;-1.28;0.0;0.0;100.0;-0.014624575152993202;2.242630958557129;0.018497386947274208;0.0;0.0;0.0;3;9;128.0;0.0;0.0;STABILIZE;STANDBY;false;false;false
74.0;-22.0059313;-47.8987931;-1.29;0.0;0.0;100.0;-0.0145758967846632;2.2419981956481934;0.018557822331786156;0.0;-0.02;0.0;3;9;128.0;0.029999999329447746;0.029999999329447746;STABILIZE;STANDBY;false;false;false
74.5;-22.005931;-47.8987931;-1.3;0.0;0.0;100.0;-0.014608585275709629;2.241281747817993;0.018611596897244453;0.01;-0.01;-0.01;3;9;128.0;0.009999999776482582;0.009999999776482582;STABILIZE;STANDBY;false;false;false
75.0;-22.0059307;-47.8987931;-1.27;0.0;0.0;100.0;-0.01453541312366724;2.2411580085754395;0.018467914313077927;0.01;0.0;-0.01;3;9;128.0;0.009999999776482582;0.009999999776482582;STABILIZE;STANDBY;false;false;false
75.5;-22.0059303;-47.8987932;-1.25;0.0;0.0;100.0;-0.014464187435805798;2.2407186031341553;0.018572961911559105;0.0;-0.03;0.0;3;9;128.0;0.029999999329447746;0.029999999329447746;STABILIZE;STANDBY;false;false;false
76.0;-22.0059301;-47.8987932;-1.24;0.0;0.0;100.0;-0.014430953189730644;2.241321086883545;0.018666481599211693;0.01;0.0;-0.01;3;9;128.0;0.009999999776482582;0.009999999776482582;STABILIZE;STANDBY;false;false;false
76.5;-22.0059299;-47.8987933;-1.22;0.0;0.0;100.0;-0.014508791267871857;2.241633892059326;0.01841852068901062;0.0;-0.01;0.0;3;9;128.0;0.009999999776482582;0.009999999776482582;STABILIZE;STANDBY;false;false;false
77.0;-22.0059298;-47.8987933;-1.22;0.0;0.0;100.0;-0.014615903608500957;2.241161823272705;0.018357425928115845;-0.01;0.0;0.01;3;9;128.0;0.009999999776482582;0.009999999776482582;STABILIZE;STANDBY;false;false;false
77.5;-22.0059297;-47.8987934;-1.2;0.0;0.0;100.0;-0.01455459650605917;2.2410571575164795;0.018382523208856583;0.0;-0.02;0.0;3;9;128.0;0.019999999552965164;0.019999999552965164;STABILIZE;STANDBY;false;false;false
78.0;-22.0059295;-47.8987934;-1.23;0.0;0.0;100.0;-0.01446318719536066;2.2410876750946045;0.018413595855236053;-0.01;-0.02;0.01;3;9;128.0;0.019999999552965164;0.019999999552965164;STABILIZE;STANDBY;false;false;false
78.5;-22.0059294;-47.8987934;-1.21;0.0;0.0;100.0;-0.0144368140026927;2.241379737854004;0.018488258123397827;0.0;-0.02;0.0;3;9;128.0;0.019999999552965164;0.019999999552965164;STABILIZE;STANDBY;false;false;false
79.0;-22.0059292;-47.8987934;-1.23;0.0;0.0;100.0;-0.014560520648956299;2.2421672344207764;0.01844584010541439;0.02;-0.02;-0.02;3;8;128.0;0.019999999552965164;0.019999999552965164;STABILIZE;STANDBY;false;false;false
79.5;-22.005929;-47.8987934;-1.23;0.0;0.0;100.0;-0.01455294992774725;2.24218487739563;0.01831413246691227;0.0;0.02;0.0;3;8;128.0;0.009999999776482582;0.009999999776482582;STABILIZE;STANDBY;false;false;false
80.0;-22.0059288;-47.8987933;-1.25;0.0;0.0;100.0;-0.01454321201890707;2.242884397506714;0.018460191786289215;0.0;-0.02;0.0;3;8;128.0;0.019999999552965164;0.019999999552965164;STABILIZE;STANDBY;false;false;false
80.5;-22.0059286;-47.8987932;-1.24;0.0;0.0;100.0;-0.014681888744235039;2.242478370666504;0.018447306007146835;0.0;-0.01;0.0;3;8;128.0;0.019999999552965164;0.019999999552965164;STABILIZE;STANDBY;false;false;false
81.0;-22.0059284;-47.8987932;-1.24;0.0;0.0;100.0;-0.014657179825007915;2.241905450820923;0.018684882670640945;0.01;0.0;-0.01;3;9;128.0;0.019999999552965164;0.019999999552965164;STABILIZE;STANDBY;false;false;false
81.5;-22.0059283;-47.8987931;-1.22;0.0;0.0;100.0;-0.014628525823354721;2.2420949935913086;0.018607506528496742;0.01;-0.01;-0.01;3;9;128.0;0.019999999552965164;0.019999999552965164;STABILIZE;STANDBY;false;false;false
82.0;-22.0059283;-47.8987931;-1.22;0.0;0.0;100.0;-0.014463449828326702;2.2423510551452637;0.018593329936265945;0.01;-0.01;-0.01;3;9;128.0;0.009999999776482582;0.009999999776482582;STABILIZE;STANDBY;false;false;false
82.5;-22.0059282;-47.8987931;-1.22;0.0;0.0;100.0;-0.014503750950098038;2.2427659034729004;0.01856795698404312;-0.01;0.0;0.01;3;9;128.0;0.019999999552965164;0.019999999552965164;STABILIZE;STANDBY;false;false;false
83.0;-22.0059281;-47.8987931;-1.23;0.0;0.0;100.0;-0.014602108858525753;2.242318630218506;0.018471214920282364;0.01;0.01;-0.01;3;9;128.0;0.0;0.0;STABILIZE;STANDBY;false;false;false
83.5;-22.005928;-47.8987932;-1.24;0.0;0.0;100.0;-0.014634756371378899;2.2426578998565674;0.01844535954296589;0.0;0.01;0.0;3;9;128.0;0.009999999776482582;0.009999999776482582;STABILIZE;STANDBY;false;false;false
84.0;-22.005928;-47.8987932;-1.24;0.0;0.0;100.0;-0.014548628591001034;2.2426552772521973;0.018530871719121933;0.0;-0.02;0.0;3;9;128.0;0.009999999776482582;0.009999999776482582;STABILIZE;STANDBY;false;false;false
84.5;-22.0059279;-47.898793;-1.21;0.0;0.0;100.0;-0.014729836024343967;2.242339611053467;0.01856120675802231;0.0;-0.01;0.0;3;9;128.0;0.019999999552965164;0.019999999552965164;STABILIZE;STANDBY;false;false;false
85.0;-22.005928;-47.8987929;-1.21;0.0;0.0;100.0;-0.0147453173995018;2.2418737411499023;0.018347132951021194;0.0;-0.03;0.0;3;9;128.0;0.009999999776482582;0.009999999776482582;STABILIZE;STANDBY;false;false;false
85.5;-22.0059281;-47.8987927;-1.21;0.0;0.0;100.0;-0.014740167185664177;2.241894483566284;0.018470613285899162;-0.01;-0.02;0.01;3;9;128.0;0.019999999552965164;0.019999999552965164;STABILIZE;STANDBY;false;false;false
86.0;-22.0059283;-47.8987925;-1.23;0.0;0.0;100.0;-0.014750655740499496;2.242009401321411;0.018493369221687317;0.02;0.01;-0.02;3;9;128.0;0.019999999552965164;0.019999999552965164;STABILIZE;STANDBY;false;false;false
86.5;-22.0059284;-47.8987924;-1.22;0.0;0.0;100.0;-0.014600374735891819;2.242386817932129;0.018803419545292854;0.0;-0.01;0.0;3;9;128.0;0.019999999552965164;0.019999999552965164;STABILIZE;STANDBY;false;false;false
87.0;-22.0059286;-47.8987923;-1.2;0.0;0.0;100.0;-0.014642268419265747;2.2426939010620117;0.018662411719560623;0.01;0.01;-0.01;3;10;128.0;0.019999999552965164;0.019999999552965164;STABILIZE;STANDBY;false;false;false
87.5;-22.0059288;-47.8987923;-1.18;0.0;0.0;100.0;-0.01457999087870121;2.2424421310424805;0.018664387986063957;0.0;-0.03;0.0;3;10;128.0;0.009999999776482582;0.009999999776482582;STABILIZE;STANDBY;false;false;false
88.0;-22.005929;-47.8987923;-1.15;0.0;0.0;100.0;-0.014545728452503681;2.2423524856567383;0.018611880019307137;0.0;-0.02;0.0;3;10;128.0;0.019999999552965164;0.019999999552965164;STABILIZE;STANDBY;false;false;false
88.5;-22.0059292;-47.8987923;-1.13;0.0;0.0;100.0;-0.014589590020477772;2.2421252727508545;0.018633415922522545;-0.01;-0.01;0.01;3;10;128.0;0.009999999776482582;0.009999999776482582;STABILIZE;STANDBY;false;false;false
89.0;-22.0059294;-47.8987922;-1.12;0.0;0.0;100.0;-0.01461663655936718;2.242671489715576;0.018636202439665794;0.0;-0.02;0.0;3;9;128.0;0.019999999552965164;0.019999999552965164;STABILIZE;STANDBY;false;false;false
89.5;-22.0059296;-47.898792;-1.07;0.0;0.0;100.0;-0.014658312313258648;2.2426371574401855;0.018704570829868317;0.01;0.0;-0.01;3;9;128.0;0.009999999776482582;0.009999999776482582;STABILIZE;STANDBY;false;false;false
90.0;-22.0059297;-47.8987919;-1.06;0.0;0.0;100.0;-0.014687677845358849;2.2432432174682617;0.01895051635801792;0.0;0.01;0.0;3;9;128.0;0.009999999776482582;0.009999999776482582;STABILIZE;STANDBY;false;false;false
90.5;-22.0059298;-47.8987917;-1.04;0.0;0.0;100.0;-0.01467688474804163;2.243297576904297;0.01873665861785412;0.0;-0.01;0.0;3;9;128.0;0.009999999776482582;0.009999999776482582;STABILIZE;STANDBY;false;false;false
91.0;-22.0059299;-47.8987916;-1.04;0.0;0.0;100.0;-0.014621570706367493;2.242462158203125;0.018585698679089546;0.0;-0.01;0.0;3;9;128.0;0.009999999776482582;0.009999999776482582;STABILIZE;STANDBY;false;false;false
91.5;-22.00593;-47.8987913;-1.03;0.0;0.0;100.0;-0.014635445550084114;2.2423343658447266;0.018627965822815895;0.0;-0.01;0.0;3;9;128.0;0.009999999776482582;0.009999999776482582;STABILIZE;STANDBY;false;false;false
92.0;-22.00593;-47.8987912;-1.02;0.0;0.0;100.0;-0.014626095071434975;2.241861581802368;0.018612071871757507;0.0;-0.02;0.0;3;9;128.0;0.019999999552965164;0.019999999552965164;STABILIZE;STANDBY;false;false;false
92.5;-22.00593;-47.8987909;-1.02;0.0;0.0;100.0;-0.014628948643803596;2.2418437004089355;0.01868574693799019;0.0;0.0;0.0;3;9;128.0;0.0;0.0;STABILIZE;STANDBY;false;false;false
93.0;-22.00593;-47.8987908;-1.02;0.0;0.0;100.0;-0.01465716864913702;2.2423295974731445;0.018793556839227676;-0.01;-0.01;0.01;3;9;128.0;0.009999999776482582;0.009999999776482582;STABILIZE;STANDBY;false;false;false
93.5;-22.0059301;-47.8987907;-1.02;0.0;0.0;100.0;-0.014719541184604168;2.2421092987060547;0.018633738160133362;0.01;0.01;-0.01;3;9;128.0;0.009999999776482582;0.009999999776482582;STABILIZE;STANDBY;false;false;false
94.0;-22.0059301;-47.8987907;-1.01;0.0;0.0;100.0;-0.014810578897595406;2.242152690887451;0.01863003894686699;0.0;0.0;0.0;3;9;128.0;0.0;0.0;STABILIZE;STANDBY;false;false;false
94.5;-22.0059302;-47.8987907;-1.02;0.0;0.0;100.0;-0.0147037822753191;2.24174165725708;0.01869841478765011;-0.01;-0.01;0.01;3;9;128.0;0.019999999552965164;0.019999999552965164;STABILIZE;STANDBY;false;false;false
95.0;-22.0059303;-47.8987907;-1.03;0.0;0.0;100.0;-0.014673317782580853;2.2419989109039307;0.01887337863445282;-0.02;-0.01;0.02;3;9;128.0;0.019999999552965164;0.019999999552965164;STABILIZE;STANDBY;false;false;false
95.5;-22.0059304;-47.8987909;-1.04;0.0;0.0;100.0;-0.01476613525301218;2.242567539215088;0.0186376441270113;-0.01;-0.02;0.01;3;9;128.0;0.019999999552965164;0.019999999552965164;STABILIZE;STANDBY;false;false;false
96.0;-22.0059305;-47.898791;-1.07;0.0;0.0;100.0;-0.014716156758368015;2.2419931888580322;0.0185870211571455;0.01;0.01;-0.01;3;9;128.0;0.019999999552965164;0.019999999552965164;STABILIZE;STANDBY;false;false;false
96.5;-22.0059305;-47.8987911;-1.06;0.0;0.0;100.0;-0.014981042593717575;2.242511034011841;0.01863420195877552;-0.01;-0.02;0.01;3;9;128.0;0.0;0.0;STABILIZE;STANDBY;false;false;false
97.0;-22.0059305;-47.8987911;-1.07;0.0;0.0;100.0;-0.014912392944097519;2.2424399852752686;0.01865013875067234;0.0;0.0;0.0;3;9;128.0;0.0;0.0;STABILIZE;STANDBY;false;false;false
97.5;-22.0059305;-47.8987912;-1.08;0.0;0.0;100.0;-0.014814261347055435;2.242156505584717;0.018628284335136414;0.0;-0.02;0.0;3;10;128.0;0.019999999552965164;0.019999999552965164;STABILIZE;STANDBY;false;false;false
98.0;-22.0059304;-47.8987913;-1.05;0.0;0.0;100.0;-0.01487409695982933;2.242733955383301;0.018679119646549225;-0.02;-0.02;0.02;3;10;128.0;0.009999999776482582;0.009999999776482582;STABILIZE;STANDBY;false;false;false
98.5;-22.0059305;-47.8987914;-1.05;0.0;0.0;100.0;-0.014740198850631714;2.2424206733703613;0.01867477223277092;0.0;0.0;0.0;3;10;128.0;0.019999999552965164;0.019999999552965164;STABILIZE;STANDBY;false;false;false
99.0;-22.0059305;-47.8987915;-1.04;0.0;0.0;100.0;-0.014671065844595432;2.242476463317871;0.01864628493785858;-0.01;-0.01;0.01;3;10;128.0;0.009999999776482582;0.009999999776482582;STABILIZE;STANDBY;false;false;false
99.5;-22.0059306;-47.8987916;-1.03;0.0;0.0;100.0;-0.014717969112098217;2.2428030967712402;0.018729008734226227;-0.01;-0.01;0.01;3;10;128.0;0.009999999776482582;0.009999999776482582;STABILIZE;STANDBY;false;false;false
100.0;-22.0059306;-47.8987917;-1.04;0.0;0.0;100.0;-0.01475471444427967;2.242258071899414;0.01873081922531128;0.01;0.02;-0.01;3;10;128.0;0.019999999552965164;0.019999999552965164;STABILIZE;STANDBY;false;false;false
100.5;-22.0059306;-47.8987918;-1.06;0.0;0.0;100.0;-0.014829185791313648;2.2421133518218994;0.018739772960543633;0.0;-0.03;0.0;3;10;128.0;0.029999999329447746;0.029999999329447746;STABILIZE;STANDBY;false;false;false
101.0;-22.0059306;-47.898792;-1.08;0.0;0.0;100.0;-0.014742151834070683;2.2420578002929688;0.018823863938450813;0.0;-0.02;0.0;3;10;128.0;0.019999999552965164;0.019999999552965164;STABILIZE;STANDBY;false;false;false
101.5;-22.0059305;-47.8987923;-1.06;0.0;0.0;100.0;-0.014731517992913723;2.242030620574951;0.018757401034235954;0.01;-0.01;-0.01;3;10;128.0;0.009999999776482582;0.009999999776482582;STABILIZE;STANDBY;false;false;false
102.0;-22.0059306;-47.8987925;-1.05;0.0;0.0;100.0;-0.014562947675585747;2.2424545288085938;0.01871584914624691;-0.01;-0.02;0.01;3;10;128.0;0.009999999776482582;0.009999999776482582;STABILIZE;STANDBY;false;false;false
102.5;-22.0059305;-47.8987927;-1.07;0.0;0.0;100.0;-0.01469484344124794;2.2423925399780273;0.01870257593691349;0.0;0.0;0.0;3;10;128.0;0.0;0.0;STABILIZE;STANDBY;false;false;false
103.0;-22.0059305;-47.8987929;-1.1;0.0;0.0;100.0;-0.014782880432903767;2.2426319122314453;0.018574660643935204;0.02;0.01;-0.02;3;10;128.0;0.019999999552965164;0.009999999776482582;STABILIZE;STANDBY;false;false;false
103.5;-22.0059304;-47.8987931;-1.12;0.0;0.0;100.0;-0.014690831303596497;2.2426304817199707;0.018525851890444756;-0.01;-0.02;0.01;3;10;128.0;0.019999999552965164;0.019999999552965164;STABILIZE;STANDBY;false;false;false
104.0;-22.0059303;-47.8987932;-1.13;0.0;0.0;100.0;-0.014765250496566296;2.2427165508270264;0.018684612587094307;0.01;-0.01;-0.01;3;10;128.0;0.009999999776482582;0.009999999776482582;STABILIZE;STANDBY;false;false;false
104.5;-22.0059302;-47.8987932;-1.13;0.0;0.0;100.0;-0.014677532948553562;2.24342679977417;0.01856405846774578;-0.01;-0.01;0.01;3;10;128.0;0.019999999552965164;0.019999999552965164;STABILIZE;STANDBY;false;false;false
105.0;-22.0059301;-47.8987932;-1.14;0.0;0.0;100.0;-0.014684153720736504;2.2430238723754883;0.01852973736822605;0.01;0.0;-0.01;3;10;128.0;0.009999999776482582;0.009999999776482582;STABILIZE;STANDBY;false;false;false
105.5;-22.0059299;-47.8987931;-1.15;0.0;0.0;100.0;-0.014712885953485966;2.24294114112854;0.018701622262597084;0.0;0.01;0.0;3;10;128.0;0.009999999776482582;0.009999999776482582;STABILIZE;STANDBY;false;false;false
106.0;-22.0059297;-47.8987928;-1.17;0.0;0.0;100.0;-0.01488365139812231;2.2432210445404053;0.01854131370782852;0.0;-0.01;0.0;3;10;128.0;0.019999999552965164;0.019999999552965164;STABILIZE;STANDBY;false;false;false
106.5;-22.0059295;-47.8987926;-1.19;0.0;0.0;100.0;-0.014814434573054314;2.2428393363952637;0.01854965277016163;0.01;0.01;-0.01;3;10;128.0;0.0;0.0;STABILIZE;STANDBY;false;false;false
107.0;-22.0059292;-47.8987923;-1.18;0.0;0.0;100.0;-0.01471611950546503;2.242499828338623;0.018538327887654305;0.0;0.0;0.0;3;10;128.0;0.009999999776482582;0.009999999776482582;STABILIZE;STANDBY;false;false;false
107.5;-22.0059288;-47.898792;-1.17;0.0;0.0;100.0;-0.014788121916353703;2.2422423362731934;0.018706737086176872;0.0;0.0;0.0;3;10;128.0;0.019999999552965164;0.019999999552965164;STABILIZE;STANDBY;false;false;false
108.0;-22.0059285;-47.8987918;-1.15;0.0;0.0;100.0;-0.014848516322672367;2.2419800758361816;0.01880585588514805;0.01;-0.01;-0.01;3;10;128.0;0.0;0.0;STABILIZE;STANDBY;false;false;false
108.5;-22.005928;-47.8987915;-1.16;0.0;0.0;100.0;-0.014837284572422504;2.2416090965270996;0.018805399537086487;-0.01;-0.01;0.01;3;10;128.0;0.019999999552965164;0.019999999552965164;STABILIZE;STANDBY;false;false;false
109.0;-22.0059275;-47.8987912;-1.13;0.0;0.0;100.0;-0.014759903773665428;2.2416815757751465;0.018882032483816147;0.01;-0.01;-0.01;3;10;128.0;0.009999999776482582;0.009999999776482582;STABILIZE;STANDBY;false;false;false
109.5;-22.0059272;-47.898791;-1.14;0.0;0.0;100.0;-0.014774962328374386;2.241795063018799;0.018919119611382484;0.01;0.0;-0.01;3;10;128.0;0.009999999776482582;0.009999999776482582;STABILIZE;STANDBY;false;false;false
110.0;-22.0059268;-47.8987909;-1.15;0.0;0.0;100.0;-0.014874143525958061;2.2418017387390137;0.018755605444312096;0.0;0.0;0.0;3;10;128.0;0.019999999552965164;0.019999999552965164;STABILIZE;STANDBY;false;false;false
110.5;-22.0059265;-47.8987908;-1.16;0.0;0.0;100.0;-0.014814370311796665;2.241377830505371;0.01873188652098179;0.0;-0.01;0.0;3;10;128.0;0.009999999776482582;0.009999999776482582;STABILIZE;STANDBY;false;false;false
111.0;-22.0059262;-47.8987908;-1.15;0.0;0.0;100.0;-0.014885892160236835;2.24143123626709;0.018587294965982437;0.0;-0.01;0.0;3;10;128.0;0.009999999776482582;0.009999999776482582;STABILIZE;STANDBY;false;false;false
111.5;-22.005926;-47.8987909;-1.13;0.0;0.0;100.0;-0.014903253875672817;2.24202561378479;0.018812064081430435;0.0;-0.01;0.0;3;10;128.0;0.019999999552965164;0.019999999552965164;STABILIZE;STANDBY;false;false;false
112.0;-22.0059257;-47.8987909;-1.11;0.0;0.0;100.0;-0.014856196939945221;2.242015838623047;0.018820028752088547;0.0;0.0;0.0;3;10;128.0;0.009999999776482582;0.009999999776482582;STABILIZE;STANDBY;false;false;false
112.5;-22.0059255;-47.898791;-1.09;0.0;0.0;100.0;-0.014789688400924206;2.242249011993408;0.018542489036917686;-0.01;0.0;0.01;3;10;128.0;0.019999999552965164;0.019999999552965164;STABILIZE;STANDBY;false;false;false
113.0;-22.0059253;-47.898791;-1.07;0.0;0.0;100.0;-0.014721737243235111;2.242480993270874;0.018518174067139626;-0.01;0.01;0.01;3;10;128.0;0.009999999776482582;0.009999999776482582;STABILIZE;STANDBY;false;false;false
113.5;-22.005925;-47.898791;-1.06;0.0;0.0;100.0;-0.014690171927213669;2.2425293922424316;0.01861765794456005;0.0;0.01;0.0;3;10;128.0;0.009999999776482582;0.019999999552965164;STABILIZE;STANDBY;false;false;false
114.0;-22.0059248;-47.898791;-1.03;0.0;0.0;100.0;-0.014610306359827518;2.2426116466522217;0.018646463751792908;0.01;-0.01;-0.01;3;10;128.0;0.009999999776482582;0.009999999776482582;STABILIZE;STANDBY;false;false;false
114.5;-22.0059246;-47.898791;-0.99;0.0;0.0;100.0;-0.014646573923528194;2.242478847503662;0.01876823417842388;0.0;0.0;0.0;3;10;128.0;0.0;0.0;STABILIZE;STANDBY;false;false;false
115.0;-22.0059244;-47.898791;-0.96;0.0;0.0;100.0;-0.014684287831187248;2.242556095123291;0.018701881170272827;0.0;-0.01;0.0;3;10;128.0;0.009999999776482582;0.009999999776482582;STABILIZE;STANDBY;false;false;false
115.5;-22.0059242;-47.8987911;-0.96;0.0;0.0;100.0;-0.014586387202143669;2.2421000003814697;0.018717685714364052;0.0;0.01;0.0;3;10;128.0;0.009999999776482582;0.009999999776482582;STABILIZE;STANDBY;false;false;false
116.0;-22.0059241;-47.8987911;-0.92;0.0;0.0;100.0;-0.014648239128291607;2.242521286010742;0.018736686557531357;0.0;-0.01;0.0;3;10;128.0;0.009999999776482582;0.009999999776482582;STABILIZE;STANDBY;false;false;false
116.5;-22.005924;-47.8987911;-0.93;0.0;0.0;100.0;-0.014659623615443707;2.2426834106445312;0.018801039084792137;0.0;-0.01;0.0;3;10;128.0;0.009999999776482582;0.009999999776482582;STABILIZE;STANDBY;false;false;false
117.0;-22.005924;-47.8987911;-0.95;0.0;0.0;100.0;-0.014549517072737217;2.242363691329956;0.018833305686712265;0.0;-0.01;0.0;3;10;128.0;0.009999999776482582;0.009999999776482582;STABILIZE;STANDBY;false;false;false
117.5;-22.005924;-47.898791;-0.92;0.0;0.0;100.0;-0.01462106965482235;2.242418050765991;0.01861760765314102;-0.01;-0.03;0.01;3;10;128.0;0.009999999776482582;0.009999999776482582;STABILIZE;STANDBY;false;false;false
118.0;-22.005924;-47.8987909;-0.89;0.0;0.0;100.0;-0.014497801661491394;2.2420921325683594;0.018722601234912872;0.0;-0.02;0.0;3;10;128.0;0.009999999776482582;0.009999999776482582;STABILIZE;STANDBY;false;false;false
118.5;-22.0059242;-47.8987906;-0.87;0.0;0.0;100.0;-0.014733298681676388;2.242738723754883;0.018545860424637794;0.01;0.01;-0.01;3;10;128.0;0.019999999552965164;0.019999999552965164;STABILIZE;STANDBY;false;false;false
119.0;-22.0059243;-47.8987905;-0.87;0.0;0.0;100.0;-0.014617828652262688;2.2428524494171143;0.01841902919113636;0.0;-0.02;0.0;3;10;128.0;0.009999999776482582;0.009999999776482582;STABILIZE;STANDBY;false;false;false
119.5;-22.0059245;-47.8987904;-0.85;0.0;0.0;100.0;-0.01473950408399105;2.2424519062042236;0.018551476299762726;0.01;-0.01;-0.01;3;10;128.0;0.009999999776482582;0.009999999776482582;STABILIZE;STANDBY;false;false;false
120.0;-22.0059247;-47.8987902;-0.87;0.0;0.0;100.0;-0.014702728018164635;2.2426226139068604;0.01869831047952175;0.0;-0.01;0.0;3;10;128.0;0.0;0.0;STABILIZE;STANDBY;false;false;false
120.5;-22.0059248;-47.89879;-0.86;0.0;0.0;100.0;-0.014693254604935646;2.2430074214935303;0.018907634541392326;0.01;0.0;-0.01;3;10;128.0;0.009999999776482582;0.009999999776482582;STABILIZE;STANDBY;false;false;false
121.0;-22.005925;-47.8987896;-0.85;0.0;0.0;100.0;-0.014690369367599487;2.242812156677246;0.01898840442299843;0.0;0.0;0.0;3;10;128.0;0.019999999552965164;0.019999999552965164;STABILIZE;STANDBY;false;false;false
121.5;-22.0059251;-47.8987892;-0.84;0.0;0.0;100.0;-0.014588648453354836;2.243058204650879;0.018784867599606514;-0.01;-0.01;0.01;3;10;128.0;0.009999999776482582;0.009999999776482582;STABILIZE;STANDBY;false;false;false
122.0;-22.0059252;-47.8987887;-0.83;0.0;0.0;100.0;-0.014640269801020622;2.2427926063537598;0.01888330839574337;0.0;-0.01;0.0;3;10;128.0;0.009999999776482582;0.009999999776482582;STABILIZE;STANDBY;false;false;false
122.5;-22.0059252;-47.8987882;-0.82;0.0;0.0;100.0;-0.014821741729974747;2.24320125579834;0.01886378973722458;0.0;0.01;0.0;3;10;128.0;0.009999999776482582;0.009999999776482582;STABILIZE;STANDBY;false;false;false
123.0;-22.0059252;-47.8987875;-0.77;0.0;0.0;100.0;-0.014720906503498554;2.243028163909912;0.018863772973418236;-0.01;-0.01;0.01;3;10;128.0;0.009999999776482582;0.009999999776482582;STABILIZE;STANDBY;false;false;false
123.5;-22.0059253;-47.8987871;-0.76;0.0;0.0;100.0;-0.014786976389586926;2.242626190185547;0.01874571479856968;0.0;0.0;0.0;3;10;128.0;0.0;0.0;STABILIZE;STANDBY;false;false;false
124.0;-22.0059253;-47.8987868;-0.77;0.0;0.0;100.0;-0.014764020219445229;2.2424967288970947;0.018643420189619064;-0.01;-0.01;0.01;3;10;128.0;0.009999999776482582;0.009999999776482582;STABILIZE;STANDBY;false;false;false
124.5;-22.0059254;-47.8987862;-0.77;0.0;0.0;100.0;-0.014796081930398941;2.242436647415161;0.01868961937725544;0.0;0.0;0.0;3;10;128.0;0.0;0.0;STABILIZE;STANDBY;false;false;false
125.0;-22.0059255;-47.8987859;-0.77;0.0;0.0;100.0;-0.014830428175628185;2.2422356605529785;0.018668919801712036;0.0;0.01;0.0;3;10;128.0;0.009999999776482582;0.009999999776482582;STABILIZE;STANDBY;false;false;false
125.5;-22.0059257;-47.8987854;-0.78;0.0;0.0;100.0;-0.014953074045479298;2.242191791534424;0.018755797296762466;-0.01;0.0;0.01;3;10;128.0;0.009999999776482582;0.009999999776482582;STABILIZE;STANDBY;false;false;false
126.0;-22.0059258;-47.8987852;-0.76;0.0;0.0;100.0;-0.014985833317041397;2.2419254779815674;0.018682042136788368;0.01;0.01;-0.01;3;10;128.0;0.009999999776482582;0.009999999776482582;STABILIZE;STANDBY;false;false;false
126.5;-22.0059259;-47.8987848;-0.78;0.0;0.0;100.0;-0.014897161163389683;2.241907835006714;0.018794137984514236;-0.02;0.0;0.02;3;10;128.0;0.019999999552965164;0.019999999552965164;STABILIZE;STANDBY;false;false;false
127.0;-22.0059261;-47.8987846;-0.77;0.0;0.0;100.0;-0.01475832611322403;2.2419345378875732;0.01878785900771618;0.0;0.0;0.0;3;10;128.0;0.009999999776482582;0.009999999776482582;STABILIZE;STANDBY;false;false;false
127.5;-22.0059263;-47.8987843;-0.79;0.0;0.0;100.0;-0.014695564284920692;2.241936683654785;0.018848156556487083;-0.01;-0.01;0.01;3;10;128.0;0.009999999776482582;0.009999999776482582;STABILIZE;STANDBY;false;false;false
128.0;-22.0059265;-47.8987841;-0.8;0.0;0.0;100.0;-0.01485438086092472;2.2424845695495605;0.018587131053209305;-0.01;-0.01;0.01;3;10;128.0;0.019999999552965164;0.019999999552965164;STABILIZE;STANDBY;false;false;false
128.5;-22.0059269;-47.8987839;-0.78;0.0;0.0;100.0;-0.014846964739263058;2.242802143096924;0.018592463806271553;-0.01;-0.02;0.01;3;10;128.0;0.009999999776482582;0.009999999776482582;STABILIZE;STANDBY;false;false;false
129.0;-22.0059274;-47.8987837;-0.76;0.0;0.0;100.0;-0.014697272330522537;2.2418770790100098;0.018578538671135902;0.0;0.0;0.0;3;10;128.0;0.0;0.0;STABILIZE;STANDBY;false;false;false
129.5;-22.0059277;-47.8987836;-0.75;0.0;0.0;100.0;-0.014730286784470081;2.242063045501709;0.018636353313922882;0.0;-0.02;0.0;3;10;128.0;0.019999999552965164;0.019999999552965164;STABILIZE;STANDBY;false;false;false
130.0;-22.0059282;-47.8987834;-0.76;0.0;0.0;100.0;-0.014713249169290066;2.2419962882995605;0.01859959401190281;-0.01;-0.02;0.01;3;10;128.0;0.019999999552965164;0.019999999552965164;STABILIZE;STANDBY;false;false;false
130.5;-22.0059285;-47.8987834;-0.75;0.0;0.0;100.0;-0.01471006590873003;2.242330551147461;0.018643172457814217;0.0;-0.01;0.0;3;10;128.0;0.019999999552965164;0.019999999552965164;STABILIZE;STANDBY;false;false;false
131.0;-22.005929;-47.8987834;-0.74;0.0;0.0;100.0;-0.014712420292198658;2.2422494888305664;0.01861669309437275;0.0;-0.01;0.0;3;10;128.0;0.009999999776482582;0.009999999776482582;STABILIZE;STANDBY;false;false;false
131.5;-22.0059293;-47.8987835;-0.75;0.0;0.0;100.0;-0.014833538793027401;2.2425827980041504;0.01871131733059883;0.0;0.0;0.0;3;10;128.0;0.019999999552965164;0.0;STABILIZE;STANDBY;false;false;false
132.0;-22.0059295;-47.8987836;-0.76;0.0;0.0;100.0;-0.014821618795394897;2.242830753326416;0.018573766574263573;0.0;-0.01;0.0;3;10;128.0;0.019999999552965164;0.019999999552965164;STABILIZE;STANDBY;false;false;false
132.5;-22.0059297;-47.8987838;-0.76;0.0;0.0;100.0;-0.014885767363011837;2.242490768432617;0.018615541979670525;0.01;0.0;-0.01;3;10;128.0;0.009999999776482582;0.019999999552965164;STABILIZE;STANDBY;false;false;false
133.0;-22.0059298;-47.898784;-0.73;0.0;0.0;100.0;-0.014738285914063454;2.242344856262207;0.018711647018790245;0.0;-0.02;0.0;3;10;128.0;0.009999999776482582;0.009999999776482582;STABILIZE;STANDBY;false;false;false
133.5;-22.0059299;-47.8987841;-0.7;0.0;0.0;100.0;-0.014640279114246368;2.242295026779175;0.01875024288892746;0.01;-0.02;-0.01;3;10;128.0;0.009999999776482582;0.009999999776482582;STABILIZE;STANDBY;false;false;false
134.0;-22.0059299;-47.8987842;-0.68;0.0;0.0;100.0;-0.014705928042531013;2.242257833480835;0.01870342716574669;0.0;-0.01;0.0;3;10;128.0;0.009999999776482582;0.009999999776482582;STABILIZE;STANDBY;false;false;false
134.5;-22.0059298;-47.8987842;-0.68;0.0;0.0;100.0;-0.014699164777994156;2.2421538829803467;0.01882277987897396;0.0;0.0;0.0;3;10;128.0;0.0;0.0;STABILIZE;STANDBY;false;false;false
135.0;-22.0059297;-47.8987842;-0.69;0.0;0.0;100.0;-0.014698132872581482;2.242316961288452;0.018681876361370087;0.01;0.0;-0.01;3;10;128.0;0.019999999552965164;0.019999999552965164;STABILIZE;STANDBY;false;false;false
135.5;-22.0059296;-47.8987842;-0.68;0.0;0.0;100.0;-0.014672196470201015;2.2424540519714355;0.018642332404851913;0.02;0.02;-0.02;3;10;128.0;0.0;0.0;STABILIZE;STANDBY;false;false;false
136.0;-22.0059295;-47.8987841;-0.67;0.0;0.0;100.0;-0.014718168415129185;2.2421720027923584;0.018506236374378204;0.0;-0.01;0.0;3;10;128.0;0.009999999776482582;0.009999999776482582;STABILIZE;STANDBY;false;false;false
136.5;-22.0059295;-47.898784;-0.7;0.0;0.0;100.0;-0.014834997244179249;2.2422053813934326;0.018509000539779663;0.0;-0.01;0.0;3;10;128.0;0.009999999776482582;0.009999999776482582;STABILIZE;STANDBY;false;false;false
137.0;-22.0059294;-47.8987838;-0.73;0.0;0.0;100.0;-0.014833158813416958;2.2420167922973633;0.01878213696181774;0.01;-0.02;-0.01;3;10;128.0;0.019999999552965164;0.019999999552965164;STABILIZE;STANDBY;false;false;false
137.5;-22.0059294;-47.8987837;-0.71;0.0;0.0;100.0;-0.0146785918623209;2.2422897815704346;0.018492156639695168;-0.01;0.0;0.01;3;10;128.0;0.0;0.0;STABILIZE;STANDBY;false;false;false
138.0;-22.0059294;-47.8987835;-0.69;0.0;0.0;100.0;-0.01471713650971651;2.242374897003174;0.018656829372048378;0.0;0.01;0.0;3;10;128.0;0.009999999776482582;0.009999999776482582;STABILIZE;STANDBY;false;false;false
138.5;-22.0059294;-47.8987833;-0.7;0.0;0.0;100.0;-0.014797095209360123;2.2426469326019287;0.01871342398226261;0.0;-0.01;0.0;3;10;128.0;0.019999999552965164;0.019999999552965164;STABILIZE;STANDBY;false;false;false
139.0;-22.0059294;-47.898783;-0.71;0.0;0.0;100.0;-0.014764959923923016;2.2425074577331543;0.01866852305829525;0.0;0.0;0.0;3;10;128.0;0.019999999552965164;0.019999999552965164;STABILIZE;STANDBY;false;false;false
139.5;-22.0059294;-47.8987828;-0.71;0.0;0.0;100.0;-0.014737864956259727;2.2424092292785645;0.018672404810786247;0.01;-0.01;-0.01;3;10;128.0;0.009999999776482582;0.009999999776482582;STABILIZE;STANDBY;false;false;false
140.0;-22.0059294;-47.8987825;-0.7;0.0;0.0;100.0;-0.014874543994665146;2.2422292232513428;0.018585287034511566;0.01;-0.01;-0.01;3;10;128.0;0.009999999776482582;0.009999999776482582;STABILIZE;STANDBY;false;false;false
140.5;-22.0059294;-47.8987821;-0.7;0.0;0.0;100.0;-0.014908591285347939;2.2421576976776123;0.018541600555181503;0.0;-0.01;0.0;3;10;128.0;0.019999999552965164;0.009999999776482582;STABILIZE;STANDBY;false;false;false
141.0;-22.0059294;-47.8987819;-0.72;0.0;0.0;100.0;-0.015079667791724205;2.2425453662872314;0.01858576200902462;0.01;0.0;-0.01;3;10;128.0;0.009999999776482582;0.009999999776482582;STABILIZE;STANDBY;false;false;false
141.5;-22.0059294;-47.8987816;-0.74;0.0;0.0;100.0;-0.014977894723415375;2.2425200939178467;0.01861369051039219;0.0;0.0;0.0;3;10;128.0;0.009999999776482582;0.009999999776482582;STABILIZE;STANDBY;false;false;false
142.0;-22.0059293;-47.8987815;-0.75;0.0;0.0;100.0;-0.014841536991298199;2.2428336143493652;0.01872170902788639;0.0;0.0;0.0;3;10;128.0;0.009999999776482582;0.009999999776482582;STABILIZE;STANDBY;false;false;false
142.5;-22.0059292;-47.8987813;-0.76;0.0;0.0;100.0;-0.014698036015033722;2.242647647857666;0.018804270774126053;-0.01;0.01;0.01;3;10;128.0;0.019999999552965164;0.019999999552965164;STABILIZE;STANDBY;false;false;false
