time;lat;lng;alt;voltage;current;level;pitch;yaw;roll;vx;vy;vz;fixtype;satellitesvisible;heading;groundspeed;airspeed;mode;system-status;armed;is-armable;ekf-ok
0.0;0.005941400000001;-47.8987305;-0.31;0.0;0.0;100.0;0.0012986924266442657;1.7988665103912354;-0.027918925508856773;0.0;-0.01;0.0;3;9;103.0;0.009999999776482582;0.009999999776482582;STABILIZE;STANDBY;false;false;false
0.5;0.005941499999999;-47.8987305;-0.29;0.0;0.0;100.0;0.001268677762709558;1.7983287572860718;-0.02792985923588276;-0.01;-0.01;0.01;3;9;103.0;0.009999999776482582;0.009999999776482582;STABILIZE;STANDBY;false;false;false
1.0;0.005941499999999;-47.8987305;-0.29;0.0;0.0;100.0;0.0011251737596467137;1.7991440296173096;-0.027827676385641098;0.01;-0.02;-0.01;3;9;103.0;0.019999999552965164;0.019999999552965164;STABILIZE;STANDBY;false;false;false
1.5;0.005941499999999;-47.8987306;-0.28;0.0;0.0;100.0;0.0011251830728724599;1.7995980978012085;-0.027800198644399643;0.0;-0.01;0.0;3;9;103.0;0.0;0.0;STABILIZE;STANDBY;false;false;false
2.0;0.005941499999999;-47.8987307;-0.24;0.0;0.0;100.0;0.0011313167633488774;1.80001962184906;-0.02782548777759075;0.0;-0.01;0.0;3;9;103.0;0.009999999776482582;0.009999999776482582;STABILIZE;STANDBY;false;false;false
2.5;0.005941499999999;-47.8987308;-0.22;0.0;0.0;100.0;0.0010932256700471044;1.8001258373260498;-0.027932647615671158;0.0;0.01;0.0;3;9;103.0;0.009999999776482582;0.009999999776482582;STABILIZE;STANDBY;false;false;false
3.0;0.005941499999999;-47.898731;-0.19;0.0;0.0;100.0;0.0011106767924502492;1.8000553846359253;-0.027933796867728233;0.0;-0.01;0.0;3;9;103.0;0.009999999776482582;0.009999999776482582;STABILIZE;STANDBY;false;false;false
3.5;0.005941499999999;-47.8987311;-0.16;0.0;0.0;100.0;0.001160379615612328;1.7993308305740356;-0.02794920653104782;0.01;0.0;-0.01;3;9;103.0;0.009999999776482582;0.009999999776482582;STABILIZE;STANDBY;false;false;false
4.0;0.005941400000001;-47.8987312;-0.16;0.0;0.0;100.0;0.0012180658522993326;1.7993632555007935;-0.02796912007033825;-0.01;-0.01;0.01;3;9;103.0;0.009999999776482582;0.009999999776482582;STABILIZE;STANDBY;false;false;false
4.5;0.005941400000001;-47.8987313;-0.15;0.0;0.0;100.0;0.0011963772121816874;1.7989779710769653;-0.02806234359741211;0.01;-0.01;-0.01;3;9;103.0;0.009999999776482582;0.009999999776482582;STABILIZE;STANDBY;false;false;false
5.0;0.0059413;-47.8987314;-0.14;0.0;0.0;100.0;0.0010996536584571004;1.8001956939697266;-0.02799847163259983;0.0;-0.02;0.0;3;9;103.0;0.019999999552965164;0.019999999552965164;STABILIZE;STANDBY;false;false;false
5.5;0.0059413;-47.8987315;-0.14;0.0;0.0;100.0;0.0010886603267863393;1.799514889717102;-0.028037764132022858;0.0;0.0;0.0;3;9;103.0;0.0;0.0;STABILIZE;STANDBY;false;false;false
6.0;0.005941199999999;-47.8987316;-0.14;0.0;0.0;100.0;0.0010591094614937901;1.8003036975860596;-0.027909189462661743;0.0;-0.01;0.0;3;9;103.0;0.009999999776482582;0.009999999776482582;STABILIZE;STANDBY;false;false;false
6.5;0.005941199999999;-47.8987317;-0.11;0.0;0.0;100.0;9.769500466063619E-4;1.8000075817108154;-0.02791149728000164;0.0;0.0;0.0;3;9;103.0;0.0;0.0;STABILIZE;STANDBY;false;false;false
7.0;0.005941199999999;-47.8987317;-0.09;0.0;0.0;100.0;0.0010451135458424687;1.7996931076049805;-0.02811638079583645;0.0;0.0;0.0;3;9;103.0;0.0;0.0;STABILIZE;STANDBY;false;false;false
7.5;0.005941199999999;-47.8987318;-0.1;0.0;0.0;100.0;0.0012704882537946105;1.798647165298462;-0.028064759448170662;0.0;0.0;0.0;3;9;103.0;0.009999999776482582;0.009999999776482582;STABILIZE;STANDBY;false;false;false
8.0;0.005941199999999;-47.8987319;-0.14;0.0;0.0;100.0;0.0011571646900847554;1.798782467842102;-0.027964521199464798;0.0;0.0;0.0;3;9;103.0;0.0;0.0;STABILIZE;STANDBY;false;false;false
8.5;0.005941199999999;-47.898732;-0.16;0.0;0.0;100.0;0.0010778681607916951;1.7982492446899414;-0.02800627239048481;0.0;-0.01;0.0;3;9;103.0;0.009999999776482582;0.009999999776482582;STABILIZE;STANDBY;false;false;false
9.0;0.005941199999999;-47.8987321;-0.13;0.0;0.0;100.0;0.0011501071276143193;1.7985504865646362;-0.02789463847875595;0.0;-0.01;0.0;3;9;103.0;0.009999999776482582;0.009999999776482582;STABILIZE;STANDBY;false;false;false
9.5;0.005941199999999;-47.8987321;-0.13;0.0;0.0;100.0;0.0011890159221366048;1.7994649410247803;-0.0277212206274271;-0.01;0.01;0.01;3;9;103.0;0.009999999776482582;0.009999999776482582;STABILIZE;STANDBY;false;false;false
10.0;0.0059413;-47.8987321;-0.15;0.0;0.0;100.0;0.001292258850298822;1.7995812892913818;-0.02777946926653385;0.01;-0.01;-0.01;3;9;103.0;0.0;0.0;STABILIZE;STANDBY;false;false;false
10.5;0.005941400000001;-47.8987321;-0.13;0.0;0.0;100.0;0.0013243838911876082;1.8005260229110718;-0.02783241681754589;0.01;0.0;-0.01;3;9;103.0;0.009999999776482582;0.009999999776482582;STABILIZE;STANDBY;false;false;false
11.0;0.005941499999999;-47.898732;-0.14;0.0;0.0;100.0;0.0013642258709296584;1.8000370264053345;-0.02789023332297802;-0.01;0.0;0.01;3;9;103.0;0.009999999776482582;0.009999999776482582;STABILIZE;STANDBY;false;false;false
11.5;0.0059416;-47.898732;-0.14;0.0;0.0;100.0;0.00146384013351053;1.7998526096343994;-0.027821412310004234;0.0;-0.02;0.0;3;9;103.0;0.009999999776482582;0.009999999776482582;STABILIZE;STANDBY;false;false;false
12.0;0.005941700000001;-47.8987319;-0.13;0.0;0.0;100.0;0.0014521240955218673;1.7998976707458496;-0.027886485680937767;0.0;-0.02;0.0;3;9;103.0;0.019999999552965164;0.019999999552965164;STABILIZE;STANDBY;false;false;false
12.5;0.005941700000001;-47.8987319;-0.12;0.0;0.0;100.0;0.001254177070222795;1.799798607826233;-0.027855155989527702;-0.01;-0.01;0.01;3;9;103.0;0.009999999776482582;0.009999999776482582;STABILIZE;STANDBY;false;false;false
13.0;0.005941799999999;-47.8987318;-0.13;0.0;0.0;100.0;0.0011980424169450998;1.7993465662002563;-0.027790455147624016;0.0;-0.01;0.0;3;9;103.0;0.009999999776482582;0.009999999776482582;STABILIZE;STANDBY;false;false;false
13.5;0.005941799999999;-47.8987317;-0.13;0.0;0.0;100.0;0.0011211225064471364;1.8010296821594238;-0.027739157900214195;0.0;0.01;0.0;3;9;103.0;0.009999999776482582;0.009999999776482582;STABILIZE;STANDBY;false;false;false
14.0;0.0059419;-47.8987316;-0.11;0.0;0.0;100.0;0.001019856077618897;1.8003228902816772;-0.027858290821313858;0.0;-0.02;0.0;3;9;103.0;0.009999999776482582;0.009999999776482582;STABILIZE;STANDBY;false;false;false
14.5;0.005941799999999;-47.8987315;-0.1;0.0;0.0;100.0;0.001038275775499642;1.8014640808105469;-0.027897052466869354;-0.01;0.0;0.01;3;9;103.0;0.009999999776482582;0.009999999776482582;STABILIZE;STANDBY;false;false;false
15.0;0.005941700000001;-47.8987313;-0.07;0.0;0.0;100.0;9.86008089967072E-4;1.8002336025238037;-0.02786034718155861;0.0;-0.01;0.0;3;9;103.0;0.009999999776482582;0.009999999776482582;STABILIZE;STANDBY;false;false;false
15.5;0.0059416;-47.8987312;-0.08;0.0;0.0;100.0;9.99992829747498E-4;1.7998369932174683;-0.027818588539958;0.0;0.0;0.0;3;9;103.0;0.0;0.0;STABILIZE;STANDBY;false;false;false
16.0;0.005941499999999;-47.8987311;-0.09;0.0;0.0;100.0;0.0011157226981595159;1.7992091178894043;-0.02776162512600422;0.0;-0.01;0.0;3;9;103.0;0.009999999776482582;0.009999999776482582;STABILIZE;STANDBY;false;false;false
16.5;0.0059413;-47.898731;-0.09;0.0;0.0;100.0;0.0010067039402201772;1.7990230321884155;-0.027819810435175896;-0.01;-0.01;0.01;3;9;103.0;0.019999999552965164;0.019999999552965164;STABILIZE;STANDBY;false;false;false
17.0;0.005941199999999;-47.8987308;-0.07;0.0;0.0;100.0;9.502583416178823E-4;1.7982549667358398;-0.027775311842560768;-0.01;-0.01;0.01;3;9;103.0;0.019999999552965164;0.019999999552965164;STABILIZE;STANDBY;false;false;false
17.5;0.005941;-47.8987307;-0.08;0.0;0.0;100.0;9.751544566825032E-4;1.7996512651443481;-0.0277254581451416;-0.01;0.0;0.01;3;9;103.0;0.009999999776482582;0.009999999776482582;STABILIZE;STANDBY;false;false;false
18.0;0.005940899999999;-47.8987305;-0.09;0.0;0.0;100.0;0.0010046066017821431;1.798822283744812;-0.0279307309538126;0.01;0.0;-0.01;3;9;103.0;0.009999999776482582;0.009999999776482582;STABILIZE;STANDBY;false;false;false
18.5;0.0059407;-47.8987302;-0.07;0.0;0.0;100.0;0.001081884023733437;1.8003119230270386;-0.02779633365571499;0.0;-0.01;0.0;3;9;103.0;0.009999999776482582;0.009999999776482582;STABILIZE;STANDBY;false;false;false
19.0;0.005940599999999;-47.8987299;-0.08;0.0;0.0;100.0;0.0011018012883141637;1.79932701587677;-0.027706533670425415;0.0;-0.01;0.0;3;9;103.0;0.0;0.0;STABILIZE;STANDBY;false;false;false
19.5;0.0059404;-47.8987296;-0.07;0.0;0.0;100.0;0.0010332261445000768;1.7992265224456787;-0.027784015983343124;0.01;-0.01;-0.01;3;9;103.0;0.009999999776482582;0.009999999776482582;STABILIZE;STANDBY;false;false;false
20.0;0.005940299999999;-47.8987293;-0.06;0.0;0.0;100.0;9.873901726678014E-4;1.7987937927246094;-0.02788832224905491;0.01;-0.01;-0.01;3;9;103.0;0.009999999776482582;0.009999999776482582;STABILIZE;STANDBY;false;false;false
20.5;0.005940200000001;-47.8987291;-0.07;0.0;0.0;100.0;9.729211451485753E-4;1.798372507095337;-0.02789885737001896;0.0;0.0;0.0;3;9;103.0;0.0;0.0;STABILIZE;STANDBY;false;false;false
21.0;0.005940200000001;-47.8987288;-0.06;0.0;0.0;100.0;0.0010366422357037663;1.7983394861221313;-0.028004027903079987;-0.01;0.0;0.01;3;9;103.0;0.009999999776482582;0.009999999776482582;STABILIZE;STANDBY;false;false;false
21.5;0.0059401;-47.8987285;-0.03;0.0;0.0;100.0;0.0011628811480477452;1.7999486923217773;-0.027895335108041763;0.0;0.0;0.0;3;9;103.0;0.009999999776482582;0.009999999776482582;STABILIZE;STANDBY;false;false;false
22.0;0.005939999999999;-47.8987283;-0.04;0.0;0.0;100.0;0.001225684187375009;1.799321174621582;-0.027862384915351868;-0.01;0.0;0.01;3;9;103.0;0.009999999776482582;0.009999999776482582;STABILIZE;STANDBY;false;false;false
22.5;0.005939999999999;-47.898728;-0.03;0.0;0.0;100.0;0.0012836608802899718;1.8006830215454102;-0.027882888913154602;0.0;0.0;0.0;3;9;103.0;0.0;0.0;STABILIZE;STANDBY;false;false;false
23.0;0.005939999999999;-47.8987278;-0.03;0.0;0.0;100.0;0.001350229955278337;1.7999234199523926;-0.02789556235074997;0.01;0.0;-0.01;3;9;103.0;0.009999999776482582;0.009999999776482582;STABILIZE;STANDBY;false;false;false
23.5;0.0059401;-47.8987276;-0.08;0.0;0.0;100.0;0.00113341782707721;1.7993088960647583;-0.027952538803219795;0.0;-0.01;0.0;3;9;103.0;0.009999999776482582;0.009999999776482582;STABILIZE;STANDBY;false;false;false
24.0;0.0059401;-47.8987275;-0.09;0.0;0.0;100.0;0.0011170246871188283;1.799173355102539;-0.028010599315166473;0.01;-0.01;-0.01;3;9;103.0;0.0;0.0;STABILIZE;STANDBY;false;false;false
24.5;0.0059401;-47.8987274;-0.09;0.0;0.0;100.0;0.0010212828638032079;1.7992658615112305;-0.02807169407606125;0.01;0.0;-0.01;3;9;103.0;0.009999999776482582;0.009999999776482582;STABILIZE;STANDBY;false;false;false
25.0;0.0059401;-47.8987272;-0.08;0.0;0.0;100.0;0.0010680315317586064;1.7989879846572876;-0.028023969382047653;-0.01;0.0;0.01;3;9;103.0;0.009999999776482582;0.009999999776482582;STABILIZE;STANDBY;false;false;false
25.5;0.0059401;-47.8987271;-0.08;0.0;0.0;100.0;0.0010702126892283559;1.800708532333374;-0.02801560051739216;0.0;0.01;0.0;3;9;103.0;0.009999999776482582;0.009999999776482582;STABILIZE;STANDBY;false;false;false
26.0;0.0059401;-47.8987269;-0.08;0.0;0.0;100.0;0.0011344050290063024;1.7998273372650146;-0.02807651273906231;0.0;-0.02;0.0;3;9;103.0;0.019999999552965164;0.019999999552965164;STABILIZE;STANDBY;false;false;false
26.5;0.005939999999999;-47.8987267;-0.08;0.0;0.0;100.0;0.001110851881094277;1.8009440898895264;-0.02797984890639782;0.03;0.02;-0.03;3;9;103.0;0.04999999701976776;0.04999999701976776;STABILIZE;STANDBY;false;false;false
27.0;0.005939900000001;-47.8987265;-0.08;0.0;0.0;100.0;0.0011879840167239308;1.8000880479812622;-0.027985593304038048;0.02;0.0;-0.02;3;9;103.0;0.019999999552965164;0.019999999552965164;STABILIZE;STANDBY;false;false;false
27.5;0.0059398;-47.8987264;-0.06;0.0;0.0;100.0;0.0011048299493268132;1.7997231483459473;-0.028005672618746758;0.0;-0.01;0.0;3;9;103.0;0.009999999776482582;0.009999999776482582;STABILIZE;STANDBY;false;false;false
28.0;0.005939699999999;-47.8987263;-0.07;0.0;0.0;100.0;0.0011369214626029134;1.799377202987671;-0.027923420071601868;0.0;-0.01;0.0;3;9;103.0;0.009999999776482582;0.009999999776482582;STABILIZE;STANDBY;false;false;false
28.5;0.005939600000001;-47.8987262;-0.07;0.0;0.0;100.0;0.0011089352192357183;1.7994240522384644;-0.027939552441239357;0.0;-0.02;0.0;3;9;103.0;0.019999999552965164;0.019999999552965164;STABILIZE;STANDBY;false;false;false
29.0;0.0059395;-47.8987262;-0.06;0.0;0.0;100.0;0.0010923669906333089;1.7989246845245361;-0.027965448796749115;0.01;-0.01;-0.01;3;9;103.0;0.009999999776482582;0.009999999776482582;STABILIZE;STANDBY;false;false;false
29.5;0.005939300000001;-47.8987262;-0.04;0.0;0.0;100.0;0.0013545177644118667;1.8006250858306885;-0.028025267645716667;0.0;-0.01;0.0;3;9;103.0;0.009999999776482582;0.009999999776482582;STABILIZE;STANDBY;false;false;false
30.0;0.0059392;-47.8987262;-0.03;0.0;0.0;100.0;0.0012768175220116973;1.800283670425415;-0.028083423152565956;-0.01;0.0;0.01;3;9;103.0;0.009999999776482582;0.009999999776482582;STABILIZE;STANDBY;false;false;false
30.5;0.005939099999999;-47.8987263;0.0;0.0;0.0;100.0;0.0011702777119353414;1.8016769886016846;-0.028134196996688843;-0.01;-0.02;0.01;3;9;103.0;0.019999999552965164;0.019999999552965164;STABILIZE;STANDBY;false;false;false
31.0;0.005939000000001;-47.8987263;0.0;0.0;0.0;100.0;0.0011970067862421274;1.800702452659607;-0.028119495138525963;-0.01;-0.01;0.01;3;9;103.0;0.009999999776482582;0.009999999776482582;STABILIZE;STANDBY;false;false;false
31.5;0.005939000000001;-47.8987264;0.02;0.0;0.0;100.0;0.0013024326181039214;1.800545334815979;-0.028020571917295456;0.0;-0.02;0.0;3;9;103.0;0.009999999776482582;0.009999999776482582;STABILIZE;STANDBY;false;false;false
32.0;0.0059389;-47.8987264;0.03;0.0;0.0;100.0;0.0011756160529330373;1.800215244293213;-0.028010699898004532;-0.01;0.0;0.01;3;9;103.0;0.019999999552965164;0.019999999552965164;STABILIZE;STANDBY;false;false;false
32.5;0.005938799999999;-47.8987265;0.04;0.0;0.0;100.0;0.0012278113281354308;1.8003149032592773;-0.027924658730626106;0.0;-0.01;0.0;3;9;103.0;0.009999999776482582;0.009999999776482582;STABILIZE;STANDBY;false;false;false
33.0;0.005938700000002;-47.8987265;0.05;0.0;0.0;100.0;0.0011578929843381047;1.799579381942749;-0.027711041271686554;-0.01;-0.01;0.01;3;9;103.0;0.009999999776482582;0.009999999776482582;STABILIZE;STANDBY;false;false;false
33.5;0.005938700000002;-47.8987265;0.07;0.0;0.0;100.0;0.001178048667497933;1.8011901378631592;-0.027788568288087845;0.0;-0.01;0.0;3;9;103.0;0.009999999776482582;0.009999999776482582;STABILIZE;STANDBY;false;false;false
34.0;0.0059386;-47.8987266;0.08;0.0;0.0;100.0;0.0011361987562850118;1.80027437210083;-0.027805089950561523;-0.01;-0.01;0.01;3;9;103.0;0.009999999776482582;0.009999999776482582;STABILIZE;STANDBY;false;false;false
34.5;0.005938499999999;-47.8987267;0.1;0.0;0.0;100.0;8.628481300547719E-4;1.8018895387649536;-0.027810120955109596;0.0;-0.01;0.0;3;9;103.0;0.009999999776482582;0.009999999776482582;STABILIZE;STANDBY;false;false;false
35.0;0.005938499999999;-47.8987267;0.1;0.0;0.0;100.0;9.275992633774877E-4;1.8011415004730225;-0.027778809890151024;0.0;0.01;0.0;3;9;103.0;0.009999999776482582;0.009999999776482582;STABILIZE;STANDBY;false;false;false
35.5;0.005938400000002;-47.8987268;0.12;0.0;0.0;100.0;0.0011190847726538777;1.8008573055267334;-0.027823640033602715;0.0;-0.02;0.0;3;9;103.0;0.019999999552965164;0.019999999552965164;STABILIZE;STANDBY;false;false;false
36.0;0.0059383;-47.8987268;0.15;0.0;0.0;100.0;0.0010577441425994039;1.8005486726760864;-0.027916811406612396;0.0;-0.01;0.0;3;9;103.0;0.009999999776482582;0.009999999776482582;STABILIZE;STANDBY;false;false;false
36.5;0.0059383;-47.8987269;0.17;0.0;0.0;100.0;0.001067044329829514;1.8004958629608154;-0.027896549552679062;0.0;-0.01;0.0;3;9;103.0;0.009999999776482582;0.009999999776482582;STABILIZE;STANDBY;false;false;false
37.0;0.005938199999999;-47.898727;0.18;0.0;0.0;100.0;0.0010416024597361684;1.7998288869857788;-0.027880577370524406;0.0;-0.01;0.0;3;9;103.0;0.009999999776482582;0.009999999776482582;STABILIZE;STANDBY;false;false;false
37.5;0.005938199999999;-47.898727;0.18;0.0;0.0;100.0;0.0010537115158513188;1.8011479377746582;-0.02782915160059929;0.01;-0.01;-0.01;3;9;103.0;0.0;0.0;STABILIZE;STANDBY;false;false;false
38.0;0.005938100000002;-47.8987271;0.22;0.0;0.0;100.0;0.0010192693443968892;1.8001854419708252;-0.027778686955571175;0.01;0.0;-0.01;3;9;103.0;0.009999999776482582;0.009999999776482582;STABILIZE;STANDBY;false;false;false
38.5;0.005937800000002;-47.8987271;0.28;0.0;0.0;100.0;0.0011996256653219461;1.8016533851623535;-0.027809444814920425;0.0;-0.01;0.0;3;9;103.0;0.009999999776482582;0.009999999776482582;STABILIZE;STANDBY;false;false;false
39.0;0.0059377;-47.8987271;0.29;0.0;0.0;100.0;0.0011938718380406499;1.8003634214401245;-0.02790849655866623;0.0;0.0;0.0;3;9;103.0;0.0;0.0;STABILIZE;STANDBY;false;false;false
39.5;0.005937500000002;-47.8987271;0.3;0.0;0.0;100.0;0.0011270401300862432;1.8004341125488281;-0.027907973155379295;0.01;-0.01;-0.01;3;9;103.0;0.019999999552965164;0.019999999552965164;STABILIZE;STANDBY;false;false;false
40.0;0.005937400000001;-47.8987271;0.31;0.0;0.0;100.0;0.0011716039152815938;1.7995553016662598;-0.027987398207187653;0.01;-0.01;-0.01;3;9;103.0;0.009999999776482582;0.009999999776482582;STABILIZE;STANDBY;false;false;false
40.5;0.005936999999999;-47.8987272;0.33;0.0;0.0;100.0;0.001129886251874268;1.7993121147155762;-0.027970770373940468;0.01;-0.01;-0.01;3;9;103.0;0.009999999776482582;0.009999999776482582;STABILIZE;STANDBY;false;false;false
41.0;0.005936699999999;-47.8987271;0.33;0.0;0.0;100.0;0.0011780691565945745;1.799109935760498;-0.028007635846734047;0.0;-0.01;0.0;3;9;103.0;0.009999999776482582;0.009999999776482582;STABILIZE;STANDBY;false;false;false
41.5;0.0059364;-47.8987271;0.35;0.0;0.0;100.0;0.0010780898155644536;1.8007193803787231;-0.028034284710884094;0.0;0.0;0.0;3;9;103.0;0.0;0.0;STABILIZE;STANDBY;false;false;false
42.0;0.005936200000001;-47.898727;0.34;0.0;0.0;100.0;0.0011750237317755818;1.799980878829956;-0.0280132032930851;0.01;0.0;-0.01;3;9;103.0;0.009999999776482582;0.009999999776482582;STABILIZE;STANDBY;false;false;false
42.5;0.005935900000001;-47.898727;0.35;0.0;0.0;100.0;0.0011286475928500295;1.8014886379241943;-0.02801525965332985;-0.01;-0.01;0.01;3;9;103.0;0.009999999776482582;0.009999999776482582;STABILIZE;STANDBY;false;false;false
43.0;0.005935699999998;-47.8987269;0.38;0.0;0.0;100.0;0.0010023267241194844;1.800323486328125;-0.02806810848414898;0.01;0.0;-0.01;3;9;103.0;0.009999999776482582;0.009999999776482582;STABILIZE;STANDBY;false;false;false
43.5;0.005935399999998;-47.8987269;0.43;0.0;0.0;100.0;9.290521265938878E-4;1.7998754978179932;-0.028048548847436905;0.0;0.0;0.0;3;9;103.0;0.009999999776482582;0.009999999776482582;STABILIZE;STANDBY;false;false;false
44.0;0.0059352;-47.8987268;0.44;0.0;0.0;100.0;0.0010815748246386647;1.7993488311767578;-0.028071364387869835;0.0;-0.01;0.0;3;9;103.0;0.009999999776482582;0.009999999776482582;STABILIZE;STANDBY;false;false;false
44.5;0.005935000000001;-47.8987268;0.47;0.0;0.0;100.0;0.0012048895005136728;1.7994393110275269;-0.028079574927687645;0.0;-0.01;0.0;3;9;103.0;0.009999999776482582;0.009999999776482582;STABILIZE;STANDBY;false;false;false
45.0;0.005934799999999;-47.8987268;0.5;0.0;0.0;100.0;0.0012227616971358657;1.7991918325424194;-0.028106147423386574;0.01;-0.02;-0.01;3;9;103.0;0.019999999552965164;0.019999999552965164;STABILIZE;STANDBY;false;false;false
45.5;0.005934700000001;-47.8987267;0.5;0.0;0.0;100.0;0.0012568127131089568;1.800704002380371;-0.027973037213087082;0.0;0.0;0.0;3;9;103.0;0.009999999776482582;0.009999999776482582;STABILIZE;STANDBY;false;false;false
46.0;0.005934499999999;-47.8987267;0.48;0.0;0.0;100.0;0.001199696445837617;1.800156831741333;-0.028028171509504318;0.0;0.0;0.0;3;9;103.0;0.0;0.0;STABILIZE;STANDBY;false;false;false
46.5;0.005934400000001;-47.8987267;0.47;0.0;0.0;100.0;0.0010270887287333608;1.801100254058838;-0.02807321399450302;0.0;-0.01;0.0;3;9;103.0;0.009999999776482582;0.009999999776482582;STABILIZE;STANDBY;false;false;false
47.0;0.0059343;-47.8987267;0.48;0.0;0.0;100.0;9.664838435128331E-4;1.8002657890319824;-0.027990495786070824;0.01;0.01;-0.01;3;9;103.0;0.019999999552965164;0.019999999552965164;STABILIZE;STANDBY;false;false;false
47.5;0.005934199999999;-47.8987267;0.49;0.0;0.0;100.0;9.872765513136983E-4;1.7998881340026855;-0.02803131751716137;0.01;0.0;-0.01;3;9;103.0;0.009999999776482582;0.009999999776482582;STABILIZE;STANDBY;false;false;false
48.0;0.005934100000001;-47.8987267;0.45;0.0;0.0;100.0;0.0012619089102372527;1.799078345298767;-0.02801789529621601;0.0;0.0;0.0;3;9;103.0;0.009999999776482582;0.009999999776482582;STABILIZE;STANDBY;false;false;false
48.5;0.005934;-47.8987267;0.44;0.0;0.0;100.0;0.001228433451615274;1.7992405891418457;-0.02815934643149376;0.01;-0.01;-0.01;3;9;103.0;0.009999999776482582;0.009999999776482582;STABILIZE;STANDBY;false;false;false
49.0;0.005933899999999;-47.8987267;0.41;0.0;0.0;100.0;0.0012545495992526412;1.798972487449646;-0.028140483424067497;0.01;0.0;-0.01;3;9;103.0;0.009999999776482582;0.009999999776482582;STABILIZE;STANDBY;false;false;false
49.5;0.005933800000001;-47.8987267;0.36;0.0;0.0;100.0;0.0013247117167338729;1.79939866065979;-0.028116662055253983;0.0;-0.01;0.0;3;9;103.0;0.009999999776482582;0.009999999776482582;STABILIZE;STANDBY;false;false;false
50.0;0.0059337;-47.8987268;0.31;0.0;0.0;100.0;0.0013913422590121627;1.7997980117797852;-0.028077254071831703;0.0;0.01;0.0;3;9;103.0;0.009999999776482582;0.009999999776482582;STABILIZE;STANDBY;false;false;false
50.5;0.005933599999999;-47.8987269;0.28;0.0;0.0;100.0;0.001231732196174562;1.7996882200241089;-0.027972528710961342;0.01;0.0;-0.01;3;9;103.0;0.019999999552965164;0.019999999552965164;STABILIZE;STANDBY;false;false;false
51.0;0.005933500000001;-47.898727;0.29;0.0;0.0;100.0;0.0011334811570122838;1.8007819652557373;-0.027940865606069565;0.0;0.0;0.0;3;9;103.0;0.009999999776482582;0.009999999776482582;STABILIZE;STANDBY;false;false;false
51.5;0.005933500000001;-47.898727;0.27;0.0;0.0;100.0;0.0011310820700600743;1.8003588914871216;-0.028011348098516464;-0.01;0.0;0.01;3;9;103.0;0.009999999776482582;0.009999999776482582;STABILIZE;STANDBY;false;false;false
52.0;0.005933500000001;-47.8987271;0.27;0.0;0.0;100.0;0.0011275672586634755;1.7998493909835815;-0.028146101161837578;0.0;-0.01;0.0;3;9;103.0;0.009999999776482582;0.009999999776482582;STABILIZE;STANDBY;false;false;false
52.5;0.005933500000001;-47.8987273;0.26;0.0;0.0;100.0;0.0010157303186133504;1.7996084690093994;-0.02815989777445793;0.0;-0.01;0.0;3;9;103.0;0.009999999776482582;0.009999999776482582;STABILIZE;STANDBY;false;false;false
53.0;0.005933500000001;-47.8987276;0.27;0.0;0.0;100.0;8.291397243738174E-4;1.7994850873947144;-0.02827276661992073;0.01;0.0;-0.01;3;9;103.0;0.0;0.0;STABILIZE;STANDBY;false;false;false
53.5;0.005933500000001;-47.8987277;0.26;0.0;0.0;100.0;0.0010176972718909383;1.8001552820205688;-0.028285615146160126;-0.01;0.0;0.01;3;9;103.0;0.009999999776482582;0.009999999776482582;STABILIZE;STANDBY;false;false;false
54.0;0.005933500000001;-47.8987279;0.27;0.0;0.0;100.0;9.737258078530431E-4;1.8005419969558716;-0.02821892686188221;0.0;-0.02;0.0;3;9;103.0;0.0;0.0;STABILIZE;STANDBY;false;false;false
54.5;0.005933500000001;-47.8987283;0.3;0.0;0.0;100.0;0.0010305402101948857;1.8004677295684814;-0.028256293386220932;0.0;-0.01;0.0;3;9;103.0;0.009999999776482582;0.009999999776482582;STABILIZE;STANDBY;false;false;false
55.0;0.005933500000001;-47.8987286;0.29;0.0;0.0;100.0;0.0010208414169028401;1.8017098903656006;-0.028126003220677376;-0.01;0.0;0.01;3;9;103.0;0.009999999776482582;0.009999999776482582;STABILIZE;STANDBY;false;false;false
55.5;0.005933500000001;-47.8987287;0.28;0.0;0.0;100.0;9.825584711506963E-4;1.8013521432876587;-0.02807881310582161;-0.02;0.0;0.02;3;9;103.0;0.009999999776482582;0.009999999776482582;STABILIZE;STANDBY;false;false;false
56.0;0.005933500000001;-47.8987291;0.3;0.0;0.0;100.0;9.346046717837453E-4;1.8010894060134888;-0.02803393453359604;0.0;0.0;0.0;3;9;103.0;0.0;0.0;STABILIZE;STANDBY;false;false;false
56.5;0.005933500000001;-47.8987294;0.3;0.0;0.0;100.0;0.0010137298377230763;1.8002978563308716;-0.0281427800655365;0.0;0.0;0.0;3;9;103.0;0.0;0.0;STABILIZE;STANDBY;false;false;false
57.0;0.005933500000001;-47.8987295;0.31;0.0;0.0;100.0;0.001054970663972199;1.7998459339141846;-0.02831454575061798;0.0;-0.01;0.0;3;9;103.0;0.009999999776482582;0.009999999776482582;STABILIZE;STANDBY;false;false;false
57.5;0.0059334;-47.8987298;0.31;0.0;0.0;100.0;0.0011276473524048924;1.799813151359558;-0.02820895053446293;0.01;0.0;-0.01;3;9;103.0;0.019999999552965164;0.019999999552965164;STABILIZE;STANDBY;false;false;false
58.0;0.005933200000001;-47.8987299;0.32;0.0;0.0;100.0;0.001064423588104546;1.8006161451339722;-0.02820710279047489;0.0;-0.01;0.0;3;9;103.0;0.019999999552965164;0.019999999552965164;STABILIZE;STANDBY;false;false;false
58.5;0.005932999999999;-47.89873;0.35;0.0;0.0;100.0;0.0011536461533978581;1.800249457359314;-0.02816835790872574;0.0;0.01;0.0;3;9;103.0;0.009999999776482582;0.009999999776482582;STABILIZE;STANDBY;false;false;false
59.0;0.0059328;-47.8987301;0.36;0.0;0.0;100.0;0.0012028536293655634;1.8011287450790405;-0.02824854478240013;0.0;0.0;0.0;3;9;103.0;0.009999999776482582;0.009999999776482582;STABILIZE;STANDBY;false;false;false
59.5;0.005932699999999;-47.8987301;0.37;0.0;0.0;100.0;0.001082019996829331;1.8006870746612549;-0.028239130973815918;0.0;0.0;0.0;3;9;103.0;0.009999999776482582;0.009999999776482582;STABILIZE;STANDBY;false;false;false
60.0;0.005932399999999;-47.8987301;0.37;0.0;0.0;100.0;9.761174442246556E-4;1.800236463546753;-0.02827071212232113;0.0;-0.01;0.0;3;9;103.0;0.019999999552965164;0.019999999552965164;STABILIZE;STANDBY;false;false;false
60.5;0.005932300000001;-47.8987302;0.34;0.0;0.0;100.0;9.882525773718953E-4;1.7999012470245361;-0.02824854664504528;0.0;0.0;0.0;3;9;103.0;0.009999999776482582;0.009999999776482582;STABILIZE;STANDBY;false;false;false
61.0;0.005932099999999;-47.8987302;0.35;0.0;0.0;100.0;0.0010591187747195363;1.7988951206207275;-0.028263812884688377;0.01;-0.01;-0.01;3;9;103.0;0.009999999776482582;0.009999999776482582;STABILIZE;STANDBY;false;false;false
61.5;0.0059319;-47.8987302;0.35;0.0;0.0;100.0;0.0012088979128748178;1.7988544702529907;-0.02831926755607128;-0.01;-0.01;0.01;3;9;103.0;0.0;0.0;STABILIZE;STANDBY;false;false;false
62.0;0.005931799999999;-47.8987302;0.32;0.0;0.0;100.0;0.001151628908701241;1.8000013828277588;-0.028205372393131256;0.0;-0.01;0.0;3;9;103.0;0.009999999776482582;0.009999999776482582;STABILIZE;STANDBY;false;false;false
62.5;0.0059316;-47.8987302;0.28;0.0;0.0;100.0;0.0012100806925445795;1.7992925643920898;-0.02814328670501709;-0.01;0.0;0.01;3;9;103.0;0.009999999776482582;0.009999999776482582;STABILIZE;STANDBY;false;false;false
63.0;0.005931400000001;-47.8987302;0.26;0.0;0.0;100.0;0.001308299950323999;1.8002896308898926;-0.027987418696284294;0.0;-0.01;0.0;3;9;103.0;0.009999999776482582;0.009999999776482582;STABILIZE;STANDBY;false;false;false
63.5;0.005931199999999;-47.8987302;0.21;0.0;0.0;100.0;0.0013309441274031997;1.7997546195983887;-0.02814745530486107;-0.01;0.01;0.01;3;9;103.0;0.009999999776482582;0.009999999776482582;STABILIZE;STANDBY;false;false;false
64.0;0.005931100000002;-47.8987302;0.23;0.0;0.0;100.0;0.0012739639496430755;1.7996106147766113;-0.028138112276792526;0.0;-0.01;0.0;3;9;103.0;0.009999999776482582;0.009999999776482582;STABILIZE;STANDBY;false;false;false
64.5;0.005930899999999;-47.8987302;0.19;0.0;0.0;100.0;0.001190759357996285;1.7993930578231812;-0.028070803731679916;0.0;-0.01;0.0;3;9;103.0;0.009999999776482582;0.009999999776482582;STABILIZE;STANDBY;false;false;false
65.0;0.005930800000002;-47.8987302;0.17;0.0;0.0;100.0;0.0011389238061383367;1.7990269660949707;-0.02806345745921135;0.01;-0.01;-0.01;3;9;103.0;0.0;0.0;STABILIZE;STANDBY;false;false;false
65.5;0.005930599999999;-47.8987302;0.18;0.0;0.0;100.0;0.0011742116184905171;1.7985482215881348;-0.02823145128786564;-0.01;0.0;0.01;3;9;103.0;0.019999999552965164;0.019999999552965164;STABILIZE;STANDBY;false;false;false
66.0;0.0059304;-47.8987302;0.17;0.0;0.0;100.0;0.001032954198308289;1.8002725839614868;-0.028237827122211456;0.0;-0.01;0.0;3;9;103.0;0.0;0.0;STABILIZE;STANDBY;false;false;false
66.5;0.005930200000002;-47.8987302;0.15;0.0;0.0;100.0;0.001007057842798531;1.799652099609375;-0.02831912413239479;0.01;0.0;-0.01;3;9;103.0;0.009999999776482582;0.009999999776482582;STABILIZE;STANDBY;false;false;false
67.0;0.005929999999999;-47.8987301;0.13;0.0;0.0;100.0;0.0011967180762439966;1.801733374595642;-0.02828320860862732;0.0;-0.01;0.0;3;9;103.0;0.009999999776482582;0.009999999776482582;STABILIZE;STANDBY;false;false;false
67.5;0.005929699999999;-47.89873;0.14;0.0;0.0;100.0;0.0012318011140450835;1.8006078004837036;-0.028186699375510216;0.0;0.01;0.0;3;9;103.0;0.009999999776482582;0.009999999776482582;STABILIZE;STANDBY;false;false;false
68.0;0.005929399999999;-47.8987299;0.16;0.0;0.0;100.0;0.001104271155782044;1.8004907369613647;-0.028089703992009163;0.0;-0.01;0.0;3;9;103.0;0.009999999776482582;0.009999999776482582;STABILIZE;STANDBY;false;false;false
68.5;0.005929200000001;-47.8987299;0.17;0.0;0.0;100.0;0.0010568463476374745;1.799492359161377;-0.028195010498166084;0.0;0.0;0.0;3;9;103.0;0.0;0.0;STABILIZE;STANDBY;false;false;false
69.0;0.005928900000001;-47.8987298;0.2;0.0;0.0;100.0;9.741113753989339E-4;1.7994661331176758;-0.028065653517842293;0.01;0.0;-0.01;3;9;103.0;0.009999999776482582;0.009999999776482582;STABILIZE;STANDBY;false;false;false
69.5;0.005928600000001;-47.8987298;0.21;0.0;0.0;100.0;0.0010511932196095586;1.7990440130233765;-0.027953121811151505;0.01;0.0;-0.01;3;9;103.0;0.009999999776482582;0.009999999776482582;STABILIZE;STANDBY;false;false;false
70.0;0.005928300000001;-47.8987298;0.22;0.0;0.0;100.0;0.0010622256668284535;1.8005049228668213;-0.027967194095253944;0.01;-0.01;-0.01;3;9;103.0;0.019999999552965164;0.019999999552965164;STABILIZE;STANDBY;false;false;false
70.5;0.005928000000001;-47.8987298;0.22;0.0;0.0;100.0;9.297655196860433E-4;1.8001582622528076;-0.027957625687122345;0.0;0.01;0.0;3;9;103.0;0.009999999776482582;0.009999999776482582;STABILIZE;STANDBY;false;false;false
71.0;0.005927799999998;-47.8987298;0.21;0.0;0.0;100.0;9.283871622756124E-4;1.8013828992843628;-0.027933605015277863;0.0;-0.01;0.0;3;9;103.0;0.009999999776482582;0.009999999776482582;STABILIZE;STANDBY;false;false;false
71.5;0.0059276;-47.8987298;0.22;0.0;0.0;100.0;0.0011137184919789433;1.8008415699005127;-0.02809726446866989;0.0;0.0;0.0;3;9;103.0;0.0;0.0;STABILIZE;STANDBY;false;false;false
72.0;0.005927400000001;-47.8987298;0.24;0.0;0.0;100.0;0.0012481812154874206;1.800860047340393;-0.028083834797143936;-0.01;0.0;0.01;3;9;103.0;0.009999999776482582;0.009999999776482582;STABILIZE;STANDBY;false;false;false
72.5;0.005927199999999;-47.8987299;0.22;0.0;0.0;100.0;0.0012582767521962523;1.7999237775802612;-0.027966033667325974;0.0;0.0;0.0;3;9;103.0;0.0;0.0;STABILIZE;STANDBY;false;false;false
73.0;0.005927;-47.89873;0.24;0.0;0.0;100.0;0.0012457281118258834;1.799798846244812;-0.028013387694954872;0.0;-0.01;0.0;3;9;103.0;0.009999999776482582;0.009999999776482582;STABILIZE;STANDBY;false;false;false
73.5;0.005926899999999;-47.8987301;0.25;0.0;0.0;100.0;0.0011607316555455327;1.799324870109558;-0.028110669925808907;0.0;-0.01;0.0;3;9;103.0;0.009999999776482582;0.009999999776482582;STABILIZE;STANDBY;false;false;false
74.0;0.0059267;-47.8987302;0.25;0.0;0.0;100.0;0.0011174158426001668;1.8006391525268555;-0.02812916412949562;0.01;-0.01;-0.01;3;9;103.0;0.009999999776482582;0.009999999776482582;STABILIZE;STANDBY;false;false;false
74.5;0.005926599999999;-47.8987303;0.26;0.0;0.0;100.0;0.0011224915506318212;1.8008276224136353;-0.02820458449423313;-0.01;-0.01;0.01;3;9;103.0;0.009999999776482582;0.009999999776482582;STABILIZE;STANDBY;false;false;false
75.0;0.005926500000001;-47.8987305;0.25;0.0;0.0;100.0;9.919480653479695E-4;1.8017797470092773;-0.028060870245099068;0.0;0.0;0.0;3;9;103.0;0.0;0.0;STABILIZE;STANDBY;false;false;false
75.5;0.005926299999999;-47.8987306;0.26;0.0;0.0;100.0;0.0010779221775010228;1.801668643951416;-0.028231624513864517;0.0;0.0;0.0;3;9;103.0;0.0;0.0;STABILIZE;STANDBY;false;false;false
76.0;0.005926200000001;-47.8987307;0.26;0.0;0.0;100.0;0.0011435617925599217;1.8009215593338013;-0.02820456400513649;-0.01;0.0;0.01;3;9;103.0;0.009999999776482582;0.009999999776482582;STABILIZE;STANDBY;false;false;false
76.5;0.0059261;-47.8987309;0.28;0.0;0.0;100.0;0.0011353438021615148;1.8000202178955078;-0.028186440467834473;0.0;-0.01;0.0;3;9;103.0;0.0;0.0;STABILIZE;STANDBY;false;false;false
77.0;0.005925999999999;-47.8987311;0.28;0.0;0.0;100.0;0.0010196064831689;1.800041675567627;-0.028151053935289383;0.01;-0.01;-0.01;3;9;103.0;0.009999999776482582;0.009999999776482582;STABILIZE;STANDBY;false;false;false
77.5;0.005925900000001;-47.8987313;0.27;0.0;0.0;100.0;0.0010649656178429723;1.7994470596313477;-0.02821221947669983;0.0;0.0;0.0;3;9;103.0;0.0;0.0;STABILIZE;STANDBY;false;false;false
78.0;0.0059258;-47.8987315;0.25;0.0;0.0;100.0;0.0010464453371241689;1.801472544670105;-0.028061021119356155;0.01;-0.01;-0.01;3;9;103.0;0.019999999552965164;0.019999999552965164;STABILIZE;STANDBY;false;false;false
78.5;0.0059258;-47.8987317;0.27;0.0;0.0;100.0;9.274279000237584E-4;1.800710916519165;-0.028066502884030342;-0.01;0.0;0.01;3;9;103.0;0.009999999776482582;0.009999999776482582;STABILIZE;STANDBY;false;false;false
79.0;0.0059258;-47.898732;0.3;0.0;0.0;100.0;9.514299454167485E-4;1.801421046257019;-0.028056763112545013;0.01;-0.01;-0.01;3;9;103.0;0.009999999776482582;0.009999999776482582;STABILIZE;STANDBY;false;false;false
79.5;0.005925900000001;-47.8987323;0.31;0.0;0.0;100.0;0.0010426902445033193;1.8010287284851074;-0.028028370812535286;-0.01;0.01;0.01;3;9;103.0;0.019999999552965164;0.019999999552965164;STABILIZE;STANDBY;false;false;false
80.0;0.005925900000001;-47.8987325;0.33;0.0;0.0;100.0;0.0012168048415333033;1.8005473613739014;-0.028072085231542587;0.01;0.0;-0.01;3;9;103.0;0.009999999776482582;0.009999999776482582;STABILIZE;STANDBY;false;false;false
80.5;0.005925900000001;-47.8987328;0.35;0.0;0.0;100.0;0.0011462607653811574;1.799907922744751;-0.028081441298127174;0.02;-0.01;-0.02;3;9;103.0;0.019999999552965164;0.019999999552965164;STABILIZE;STANDBY;false;false;false
81.0;0.005925999999999;-47.8987331;0.35;0.0;0.0;100.0;9.63587430305779E-4;1.799837350845337;-0.028093881905078888;0.0;-0.01;0.0;3;9;103.0;0.009999999776482582;0.009999999776482582;STABILIZE;STANDBY;false;false;false
81.5;0.005925999999999;-47.8987332;0.36;0.0;0.0;100.0;0.0011666474165394902;1.7989730834960938;-0.02820029854774475;0.0;0.0;0.0;3;9;103.0;0.009999999776482582;0.009999999776482582;STABILIZE;STANDBY;false;false;false
82.0;0.005926200000001;-47.8987336;0.37;0.0;0.0;100.0;0.0012238941853865981;1.800188422203064;-0.02823055535554886;0.02;0.0;-0.02;3;9;103.0;0.019999999552965164;0.019999999552965164;STABILIZE;STANDBY;false;false;false
82.5;0.005926299999999;-47.8987339;0.36;0.0;0.0;100.0;0.0010930673452094197;1.7996822595596313;-0.028276493772864342;0.02;0.01;-0.02;3;9;103.0;0.019999999552965164;0.019999999552965164;STABILIZE;STANDBY;false;false;false
83.0;0.005926299999999;-47.8987341;0.38;0.0;0.0;100.0;0.0010937360348179936;1.800012230873108;-0.028285494074225426;-0.01;0.0;0.01;3;9;103.0;0.03999999910593033;0.03999999910593033;STABILIZE;STANDBY;false;false;false
83.5;0.0059264;-47.8987343;0.38;0.0;0.0;100.0;0.001070100930519402;1.799667239189148;-0.028306610882282257;-0.02;0.01;0.02;3;9;103.0;0.019999999552965164;0.019999999552965164;STABILIZE;STANDBY;false;false;false
84.0;0.0059264;-47.8987345;0.4;0.0;0.0;100.0;9.451640071347356E-4;1.7992042303085327;-0.028251543641090393;-0.01;0.0;0.01;3;9;103.0;0.009999999776482582;0.009999999776482582;STABILIZE;STANDBY;false;false;false
84.5;0.0059264;-47.8987347;0.39;0.0;0.0;100.0;8.826592238619924E-4;1.798859715461731;-0.02837398834526539;0.01;0.0;-0.01;3;9;103.0;0.009999999776482582;0.009999999776482582;STABILIZE;STANDBY;false;false;false
85.0;0.0059264;-47.898735;0.38;0.0;0.0;100.0;8.670819224789739E-4;1.7985790967941284;-0.02826528064906597;0.0;0.0;0.0;3;9;103.0;0.0;0.0;STABILIZE;STANDBY;false;false;false
85.5;0.0059264;-47.8987351;0.37;0.0;0.0;100.0;8.291266858577728E-4;1.7982001304626465;-0.028333764523267746;0.0;-0.01;0.0;3;9;103.0;0.019999999552965164;0.019999999552965164;STABILIZE;STANDBY;false;false;false
86.0;0.005926200000001;-47.8987354;0.35;0.0;0.0;100.0;8.338689804077148E-4;1.7997010946273804;-0.028352759778499603;0.01;-0.01;-0.01;3;8;103.0;0.009999999776482582;0.009999999776482582;STABILIZE;STANDBY;false;false;false
86.5;0.005925999999999;-47.8987356;0.31;0.0;0.0;100.0;0.0010530577274039388;1.7996324300765991;-0.02834336645901203;-0.01;0.01;0.01;3;8;103.0;0.009999999776482582;0.009999999776482582;STABILIZE;STANDBY;false;false;false
87.0;0.005925900000001;-47.8987357;0.31;0.0;0.0;100.0;0.0012135023716837168;1.8003923892974854;-0.028253979980945587;0.0;0.0;0.0;3;9;103.0;0.009999999776482582;0.009999999776482582;STABILIZE;STANDBY;false;false;false
87.5;0.0059258;-47.8987359;0.3;0.0;0.0;100.0;9.692051680758595E-4;1.8007761240005493;-0.02811053767800331;-0.01;0.0;0.01;3;9;103.0;0.0;0.0;STABILIZE;STANDBY;false;false;false
88.0;0.005925600000001;-47.898736;0.27;0.0;0.0;100.0;9.018146665766835E-4;1.8002873659133911;-0.027921536937355995;0.0;-0.01;0.0;3;9;103.0;0.009999999776482582;0.009999999776482582;STABILIZE;STANDBY;false;false;false
88.5;0.005925399999999;-47.898736;0.25;0.0;0.0;100.0;9.46199637837708E-4;1.799703598022461;-0.02800225093960762;0.01;0.0;-0.01;3;9;103.0;0.009999999776482582;0.009999999776482582;STABILIZE;STANDBY;false;false;false
89.0;0.005925300000001;-47.8987361;0.25;0.0;0.0;100.0;9.763018460944295E-4;1.7991381883621216;-0.028081413358449936;0.0;-0.01;0.0;3;9;103.0;0.009999999776482582;0.009999999776482582;STABILIZE;STANDBY;false;false;false
89.5;0.0059252;-47.8987362;0.23;0.0;0.0;100.0;9.551477851346135E-4;1.799070954322815;-0.028128625825047493;0.0;-0.01;0.0;3;8;103.0;0.0;0.0;STABILIZE;STANDBY;false;false;false
90.0;0.005925099999999;-47.8987363;0.23;0.0;0.0;100.0;9.039343567565084E-4;1.7989132404327393;-0.028203194960951805;0.0;0.0;0.0;3;8;103.0;0.009999999776482582;0.009999999776482582;STABILIZE;STANDBY;false;false;false
90.5;0.005925000000001;-47.8987365;0.24;0.0;0.0;100.0;7.61544331908226E-4;1.801393747329712;-0.028293492272496223;0.02;0.0;-0.02;3;8;103.0;0.019999999552965164;0.019999999552965164;STABILIZE;STANDBY;false;false;false
91.0;0.0059249;-47.8987365;0.24;0.0;0.0;100.0;9.104703785851598E-4;1.8001976013183594;-0.02838754840195179;-0.01;0.01;0.01;3;8;103.0;0.009999999776482582;0.009999999776482582;STABILIZE;STANDBY;false;false;false
91.5;0.0059249;-47.8987366;0.23;0.0;0.0;100.0;0.0010069591226056218;1.8017914295196533;-0.028415203094482422;0.01;-0.01;-0.01;3;8;103.0;0.019999999552965164;0.019999999552965164;STABILIZE;STANDBY;false;false;false
92.0;0.005924799999999;-47.8987368;0.24;0.0;0.0;100.0;9.274260373786092E-4;1.8003888130187988;-0.028437480330467224;0.0;0.0;0.0;3;8;103.0;0.0;0.0;STABILIZE;STANDBY;false;false;false
92.5;0.0059249;-47.8987369;0.23;0.0;0.0;100.0;8.149072527885437E-4;1.8002327680587769;-0.028533771634101868;0.0;-0.01;0.0;3;8;103.0;0.0;0.0;STABILIZE;STANDBY;false;false;false
93.0;0.0059249;-47.8987371;0.23;0.0;0.0;100.0;8.928609313443303E-4;1.7996104955673218;-0.028567804023623466;0.01;-0.01;-0.01;3;8;103.0;0.009999999776482582;0.009999999776482582;STABILIZE;STANDBY;false;false;false
93.5;0.0059249;-47.8987372;0.23;0.0;0.0;100.0;9.481218876317143E-4;1.799710988998413;-0.028602736070752144;0.0;0.0;0.0;3;8;103.0;0.0;0.0;STABILIZE;STANDBY;false;false;false
94.0;0.005925000000001;-47.8987374;0.25;0.0;0.0;100.0;0.0010577888460829854;1.7989784479141235;-0.028677549213171005;0.0;0.0;0.0;3;8;103.0;0.0;0.0;STABILIZE;STANDBY;false;false;false
94.5;0.005925000000001;-47.8987376;0.24;0.0;0.0;100.0;0.0010442697675898671;1.8010472059249878;-0.028607351705431938;0.01;0.0;-0.01;3;8;103.0;0.009999999776482582;0.009999999776482582;STABILIZE;STANDBY;false;false;false
95.0;0.0059249;-47.8987377;0.25;0.0;0.0;100.0;0.0010237694950774312;1.8009364604949951;-0.028649235144257545;0.0;0.0;0.0;3;8;103.0;0.0;0.0;STABILIZE;STANDBY;false;false;false
95.5;0.0059249;-47.8987379;0.23;0.0;0.0;100.0;9.67305270023644E-4;1.8017613887786865;-0.02859560400247574;0.01;-0.01;-0.01;3;8;103.0;0.009999999776482582;0.009999999776482582;STABILIZE;STANDBY;false;false;false
96.0;0.0059249;-47.898738;0.23;0.0;0.0;100.0;0.001010468346066773;1.8010915517807007;-0.028517652302980423;-0.01;-0.01;0.01;3;8;103.0;0.009999999776482582;0.009999999776482582;STABILIZE;STANDBY;false;false;false
96.5;0.0059249;-47.8987381;0.28;0.0;0.0;100.0;9.936561109498143E-4;1.801171898841858;-0.02834516018629074;0.01;0.0;-0.01;3;8;103.0;0.009999999776482582;0.009999999776482582;STABILIZE;STANDBY;false;false;false
97.0;0.0059249;-47.8987382;0.3;0.0;0.0;100.0;9.749737801030278E-4;1.8000301122665405;-0.028362572193145752;0.0;0.0;0.0;3;8;103.0;0.0;0.0;STABILIZE;STANDBY;false;false;false
97.5;0.0059249;-47.8987382;0.32;0.0;0.0;100.0;0.0010270235361531377;1.8001582622528076;-0.028239477425813675;0.0;-0.01;0.0;3;8;103.0;0.009999999776482582;0.009999999776482582;STABILIZE;STANDBY;false;false;false
98.0;0.005924799999999;-47.8987383;0.34;0.0;0.0;100.0;0.0010258426191285253;1.7998052835464478;-0.02832559309899807;0.0;-0.01;0.0;3;8;103.0;0.009999999776482582;0.009999999776482582;STABILIZE;STANDBY;false;false;false
98.5;0.005924799999999;-47.8987384;0.36;0.0;0.0;100.0;9.979718597605824E-4;1.7996246814727783;-0.02819889597594738;0.01;-0.02;-0.01;3;8;103.0;0.019999999552965164;0.019999999552965164;STABILIZE;STANDBY;false;false;false
99.0;0.005924799999999;-47.8987386;0.39;0.0;0.0;100.0;9.16972872801125E-4;1.8012793064117432;-0.028266344219446182;0.01;-0.01;-0.01;3;8;103.0;0.009999999776482582;0.009999999776482582;STABILIZE;STANDBY;false;false;false
99.5;0.005924799999999;-47.8987388;0.43;0.0;0.0;100.0;8.865558775141835E-4;1.8004415035247803;-0.02826463058590889;0.0;-0.01;0.0;3;8;103.0;0.009999999776482582;0.009999999776482582;STABILIZE;STANDBY;false;false;false
100.0;0.005924799999999;-47.8987389;0.48;0.0;0.0;100.0;9.879452409222722E-4;1.801703929901123;-0.028269324451684952;0.0;0.0;0.0;3;8;103.0;0.009999999776482582;0.009999999776482582;STABILIZE;STANDBY;false;false;false
100.5;0.0059249;-47.8987391;0.53;0.0;0.0;100.0;0.0011542384745553136;1.8002721071243286;-0.028387002646923065;0.0;-0.01;0.0;3;9;103.0;0.009999999776482582;0.009999999776482582;STABILIZE;STANDBY;false;false;false
101.0;0.0059249;-47.8987393;0.59;0.0;0.0;100.0;0.0011253115953877568;1.7999743223190308;-0.028424909338355064;0.01;-0.01;-0.01;3;9;103.0;0.019999999552965164;0.019999999552965164;STABILIZE;STANDBY;false;false;false
101.5;0.0059249;-47.8987395;0.66;0.0;0.0;100.0;9.946898790076375E-4;1.799596905708313;-0.028278877958655357;0.0;-0.02;0.0;3;9;103.0;0.019999999552965164;0.019999999552965164;STABILIZE;STANDBY;false;false;false
102.0;0.0059249;-47.8987397;0.74;0.0;0.0;100.0;0.0010233951034024358;1.7994427680969238;-0.028274178504943848;0.01;-0.01;-0.01;3;8;103.0;0.009999999776482582;0.009999999776482582;STABILIZE;STANDBY;false;false;false
102.5;0.005924799999999;-47.8987399;0.81;0.0;0.0;100.0;8.208975195884705E-4;1.7989375591278076;-0.02846016176044941;0.01;-0.01;-0.01;3;8;103.0;0.019999999552965164;0.019999999552965164;STABILIZE;STANDBY;false;false;false
103.0;0.005924700000001;-47.8987401;0.85;0.0;0.0;100.0;8.908567251637578E-4;1.8005235195159912;-0.028418663889169693;0.0;-0.01;0.0;3;8;103.0;0.009999999776482582;0.009999999776482582;STABILIZE;STANDBY;false;false;false
103.5;0.0059246;-47.8987403;0.89;0.0;0.0;100.0;9.593350114300847E-4;1.7998276948928833;-0.028296146541833878;-0.01;-0.01;0.01;3;8;103.0;0.009999999776482582;0.009999999776482582;STABILIZE;STANDBY;false;false;false
104.0;0.005924400000001;-47.8987405;0.89;0.0;0.0;100.0;9.473842801526189E-4;1.8010302782058716;-0.028325164690613747;0.0;-0.02;0.0;3;8;103.0;0.019999999552965164;0.019999999552965164;STABILIZE;STANDBY;false;false;false
104.5;0.005924199999999;-47.8987406;0.87;0.0;0.0;100.0;8.328575640916824E-4;1.800002098083496;-0.02837803028523922;0.0;0.0;0.0;3;8;103.0;0.0;0.0;STABILIZE;STANDBY;false;false;false
105.0;0.005924;-47.8987408;0.86;0.0;0.0;100.0;9.108168305829167E-4;1.7996890544891357;-0.02839992195367813;0.01;0.0;-0.01;3;8;103.0;0.0;0.0;STABILIZE;STANDBY;false;false;false
105.5;0.005923800000001;-47.8987409;0.84;0.0;0.0;100.0;8.047055453062057E-4;1.7991526126861572;-0.028322961181402206;0.0;-0.01;0.0;3;8;103.0;0.009999999776482582;0.009999999776482582;STABILIZE;STANDBY;false;false;false
106.0;0.0059237;-47.898741;0.81;0.0;0.0;100.0;8.652304532006383E-4;1.7990691661834717;-0.028366968035697937;0.0;-0.02;0.0;3;8;103.0;0.019999999552965164;0.019999999552965164;STABILIZE;STANDBY;false;false;false
106.5;0.005923500000002;-47.8987411;0.8;0.0;0.0;100.0;9.090752573683858E-4;1.7988923788070679;-0.028315629810094833;0.01;-0.01;-0.01;3;8;103.0;0.019999999552965164;0.019999999552965164;STABILIZE;STANDBY;false;false;false
107.0;0.005923500000002;-47.8987412;0.79;0.0;0.0;100.0;8.037388324737549E-4;1.800358772277832;-0.02833903394639492;0.02;-0.01;-0.02;3;8;103.0;0.009999999776482582;0.009999999776482582;STABILIZE;STANDBY;false;false;false
107.5;0.0059234;-47.8987415;0.77;0.0;0.0;100.0;8.362215012311935E-4;1.7998443841934204;-0.028401751071214676;0.0;0.0;0.0;3;9;103.0;0.009999999776482582;0.009999999776482582;STABILIZE;STANDBY;false;false;false
108.0;0.0059234;-47.8987415;0.77;0.0;0.0;100.0;8.158646523952484E-4;1.800450325012207;-0.028447579592466354;-0.01;0.0;0.01;3;9;103.0;0.019999999552965164;0.019999999552965164;STABILIZE;STANDBY;false;false;false
108.5;0.005923299999999;-47.8987419;0.8;0.0;0.0;100.0;7.846653461456299E-4;1.7997928857803345;-0.02843896485865116;-0.01;0.0;0.01;3;8;103.0;0.009999999776482582;0.009999999776482582;STABILIZE;STANDBY;false;false;false
109.0;0.005923200000002;-47.8987421;0.79;0.0;0.0;100.0;8.317679166793823E-4;1.79959237575531;-0.02835025079548359;-0.01;-0.01;0.01;3;8;103.0;0.009999999776482582;0.009999999776482582;STABILIZE;STANDBY;false;false;false
109.5;0.005923200000002;-47.8987423;0.81;0.0;0.0;100.0;9.36586526222527E-4;1.7989286184310913;-0.02844875492155552;0.0;-0.01;0.0;3;8;103.0;0.009999999776482582;0.009999999776482582;STABILIZE;STANDBY;false;false;false
110.0;0.005923200000002;-47.8987424;0.82;0.0;0.0;100.0;9.650179417803884E-4;1.7992123365402222;-0.028459591791033745;0.02;-0.02;-0.02;3;8;103.0;0.009999999776482582;0.009999999776482582;STABILIZE;STANDBY;false;false;false
110.5;0.005923200000002;-47.8987426;0.8;0.0;0.0;100.0;0.0010135864140465856;1.7988325357437134;-0.02846233919262886;-0.01;-0.01;0.01;3;8;103.0;0.019999999552965164;0.019999999552965164;STABILIZE;STANDBY;false;false;false
111.0;0.005923200000002;-47.8987428;0.83;0.0;0.0;100.0;0.0011106954189017415;1.8003062009811401;-0.028375528752803802;0.01;-0.01;-0.01;3;8;103.0;0.019999999552965164;0.019999999552965164;STABILIZE;STANDBY;false;false;false
111.5;0.0059231;-47.8987429;0.83;0.0;0.0;100.0;0.0010319111170247197;1.7996761798858643;-0.02839982882142067;-0.04;0.0;0.04;3;8;103.0;0.03999999910593033;0.03999999910593033;STABILIZE;STANDBY;false;false;false
112.0;0.0059231;-47.898743;0.81;0.0;0.0;100.0;9.769928874447942E-4;1.8006818294525146;-0.028172675520181656;0.01;-0.01;-0.01;3;8;103.0;0.009999999776482582;0.009999999776482582;STABILIZE;STANDBY;false;false;false
112.5;0.005922999999999;-47.8987431;0.77;0.0;0.0;100.0;8.789655985310674E-4;1.7999565601348877;-0.028182707726955414;-0.01;0.0;0.01;3;8;103.0;0.019999999552965164;0.019999999552965164;STABILIZE;STANDBY;false;false;false
113.0;0.005922900000002;-47.8987432;0.78;0.0;0.0;100.0;9.01721534319222E-4;1.7997125387191772;-0.02824382111430168;0.0;-0.01;0.0;3;8;103.0;0.009999999776482582;0.009999999776482582;STABILIZE;STANDBY;false;false;false
113.5;0.005922699999999;-47.8987433;0.75;0.0;0.0;100.0;9.113495470955968E-4;1.799411654472351;-0.028267942368984222;0.01;-0.01;-0.01;3;8;103.0;0.019999999552965164;0.019999999552965164;STABILIZE;STANDBY;false;false;false
114.0;0.005922600000002;-47.8987433;0.72;0.0;0.0;100.0;0.0010444634826853871;1.79966139793396;-0.02819262631237507;0.0;0.0;0.0;3;8;103.0;0.009999999776482582;0.009999999776482582;STABILIZE;STANDBY;false;false;false
114.5;0.005922399999999;-47.8987434;0.72;0.0;0.0;100.0;0.0010662843706086278;1.798940658569336;-0.028218137100338936;0.01;0.0;-0.01;3;8;103.0;0.009999999776482582;0.009999999776482582;STABILIZE;STANDBY;false;false;false
115.0;0.005922200000001;-47.8987434;0.73;0.0;0.0;100.0;9.137896122410893E-4;1.7994284629821777;-0.028292004019021988;0.0;-0.02;0.0;3;8;103.0;0.009999999776482582;0.009999999776482582;STABILIZE;STANDBY;false;false;false
115.5;0.005922000000002;-47.8987435;0.75;0.0;0.0;100.0;8.854662301018834E-4;1.8002618551254272;-0.028335120528936386;-0.01;0.0;0.01;3;8;103.0;0.009999999776482582;0.009999999776482582;STABILIZE;STANDBY;false;false;false
116.0;0.005921799999999;-47.8987436;0.73;0.0;0.0;100.0;8.175820112228394E-4;1.800200343132019;-0.028431272134184837;0.0;0.0;0.0;3;8;103.0;0.0;0.0;STABILIZE;STANDBY;false;false;false
116.5;0.005921799999999;-47.8987436;0.72;0.0;0.0;100.0;8.936525555327535E-4;1.8009628057479858;-0.028217360377311707;0.01;-0.01;-0.01;3;8;103.0;0.009999999776482582;0.009999999776482582;STABILIZE;STANDBY;false;false;false
117.0;0.005921699999998;-47.8987437;0.68;0.0;0.0;100.0;8.147414773702621E-4;1.8002285957336426;-0.028367904946208;0.0;-0.01;0.0;3;8;103.0;0.009999999776482582;0.009999999776482582;STABILIZE;STANDBY;false;false;false
117.5;0.005921799999999;-47.8987437;0.67;0.0;0.0;100.0;8.162837475538254E-4;1.8000211715698242;-0.028291741386055946;0.01;-0.01;-0.01;3;8;103.0;0.019999999552965164;0.019999999552965164;STABILIZE;STANDBY;false;false;false
118.0;0.005921799999999;-47.8987436;0.66;0.0;0.0;100.0;8.415952324867249E-4;1.7999420166015625;-0.028278367593884468;0.0;-0.01;0.0;3;8;103.0;0.009999999776482582;0.009999999776482582;STABILIZE;STANDBY;false;false;false
118.5;0.005921799999999;-47.8987436;0.65;0.0;0.0;100.0;8.69220239110291E-4;1.799351692199707;-0.02838887646794319;0.0;-0.01;0.0;3;8;103.0;0.009999999776482582;0.009999999776482582;STABILIZE;STANDBY;false;false;false
119.0;0.005921799999999;-47.8987437;0.65;0.0;0.0;100.0;7.684212177991867E-4;1.8002077341079712;-0.028291763737797737;-0.01;0.01;0.01;3;8;103.0;0.009999999776482582;0.009999999776482582;STABILIZE;STANDBY;false;false;false
119.5;0.005921699999998;-47.8987437;0.62;0.0;0.0;100.0;8.449535816907883E-4;1.8003264665603638;-0.028170442208647728;-0.02;0.02;0.02;3;8;103.0;0.029999999329447746;0.029999999329447746;STABILIZE;STANDBY;false;false;false
120.0;0.005921499999999;-47.8987437;0.62;0.0;0.0;100.0;9.784569265320897E-4;1.8008227348327637;-0.028169866651296616;0.01;-0.02;-0.01;3;8;103.0;0.009999999776482582;0.009999999776482582;STABILIZE;STANDBY;false;false;false
120.5;0.005921399999998;-47.8987438;0.63;0.0;0.0;100.0;7.967408746480942E-4;1.8008346557617188;-0.0281777773052454;-0.01;0.0;0.01;3;8;103.0;0.009999999776482582;0.009999999776482582;STABILIZE;STANDBY;false;false;false
121.0;0.0059212;-47.8987439;0.62;0.0;0.0;100.0;7.13421031832695E-4;1.8009259700775146;-0.028170866891741753;-0.01;-0.01;0.01;3;8;103.0;0.009999999776482582;0.009999999776482582;STABILIZE;STANDBY;false;false;false
121.5;0.005921099999998;-47.898744;0.61;0.0;0.0;100.0;7.878877222537994E-4;1.7999322414398193;-0.02818424440920353;0.0;-0.01;0.0;3;8;103.0;0.009999999776482582;0.009999999776482582;STABILIZE;STANDBY;false;false;false
122.0;0.005921000000001;-47.8987441;0.6;0.0;0.0;100.0;7.625482976436615E-4;1.7996217012405396;-0.028346292674541473;0.01;-0.01;-0.01;3;8;103.0;0.019999999552965164;0.019999999552965164;STABILIZE;STANDBY;false;false;false
122.5;0.005921000000001;-47.8987443;0.59;0.0;0.0;100.0;7.552467286586761E-4;1.7991156578063965;-0.028335344046354294;-0.01;-0.01;0.01;3;8;103.0;0.009999999776482582;0.009999999776482582;STABILIZE;STANDBY;false;false;false
123.0;0.005921099999998;-47.8987444;0.57;0.0;0.0;100.0;8.57921433635056E-4;1.7995514869689941;-0.02830449305474758;0.01;-0.01;-0.01;3;8;103.0;0.009999999776482582;0.009999999776482582;STABILIZE;STANDBY;false;false;false
123.5;0.0059212;-47.8987446;0.55;0.0;0.0;100.0;8.932763012126088E-4;1.8003040552139282;-0.02820059470832348;-0.01;0.0;0.01;3;8;103.0;0.009999999776482582;0.009999999776482582;STABILIZE;STANDBY;false;false;false
124.0;0.005921399999998;-47.8987448;0.55;0.0;0.0;100.0;9.133891435340047E-4;1.7992595434188843;-0.02828671969473362;-0.02;0.0;0.02;3;8;103.0;0.019999999552965164;0.019999999552965164;STABILIZE;STANDBY;false;false;false
124.5;0.005921600000001;-47.898745;0.54;0.0;0.0;100.0;7.958617061376572E-4;1.8007277250289917;-0.028243515640497208;-0.01;0.0;0.01;3;8;103.0;0.009999999776482582;0.009999999776482582;STABILIZE;STANDBY;false;false;false
125.0;0.005921799999999;-47.8987451;0.52;0.0;0.0;100.0;7.681157439947128E-4;1.799407720565796;-0.028210490942001343;0.0;0.0;0.0;3;8;103.0;0.0;0.0;STABILIZE;STANDBY;false;false;false
125.5;0.005922000000002;-47.8987453;0.52;0.0;0.0;100.0;8.734037401154637E-4;1.7995080947875977;-0.02836819365620613;0.0;-0.01;0.0;3;8;103.0;0.019999999552965164;0.019999999552965164;STABILIZE;STANDBY;false;false;false
126.0;0.005922200000001;-47.8987454;0.52;0.0;0.0;100.0;7.161479443311691E-4;1.7987961769104004;-0.028423497453331947;0.0;-0.01;0.0;3;8;103.0;0.0;0.0;STABILIZE;STANDBY;false;false;false
126.5;0.005922399999999;-47.8987455;0.53;0.0;0.0;100.0;7.376410067081451E-4;1.798698902130127;-0.02843119576573372;0.02;-0.01;-0.02;3;9;103.0;0.019999999552965164;0.019999999552965164;STABILIZE;STANDBY;false;false;false
127.0;0.005922600000002;-47.8987455;0.54;0.0;0.0;100.0;8.082501590251923E-4;1.7980371713638306;-0.028462760150432587;0.0;0.0;0.0;3;9;103.0;0.0;0.0;STABILIZE;STANDBY;false;false;false
127.5;0.0059228;-47.8987456;0.53;0.0;0.0;100.0;8.373260498046875E-4;1.7995694875717163;-0.028391864150762558;0.01;0.0;-0.01;3;9;103.0;0.009999999776482582;0.009999999776482582;STABILIZE;STANDBY;false;false;false
128.0;0.005922999999999;-47.8987457;0.53;0.0;0.0;100.0;7.875654846429825E-4;1.7987715005874634;-0.028319573029875755;0.0;0.0;0.0;3;9;103.0;0.0;0.0;STABILIZE;STANDBY;false;false;false
128.5;0.005923200000002;-47.8987458;0.55;0.0;0.0;100.0;8.371062576770782E-4;1.8006765842437744;-0.02840273268520832;0.01;0.0;-0.01;3;9;103.0;0.0;0.0;STABILIZE;STANDBY;false;false;false
129.0;0.0059234;-47.8987459;0.55;0.0;0.0;100.0;9.762292029336095E-4;1.8001000881195068;-0.028290357440710068;-0.01;0.0;0.01;3;9;103.0;0.009999999776482582;0.009999999776482582;STABILIZE;STANDBY;false;false;false
129.5;0.005923599999999;-47.8987459;0.54;0.0;0.0;100.0;0.0010335800470784307;1.7997536659240723;-0.028299802914261818;0.0;0.01;0.0;3;9;103.0;0.009999999776482582;0.009999999776482582;STABILIZE;STANDBY;false;false;false
130.0;0.0059237;-47.898746;0.58;0.0;0.0;100.0;9.676312329247594E-4;1.7991703748703003;-0.02849452570080757;-0.01;-0.01;0.01;3;9;103.0;0.009999999776482582;0.009999999776482582;STABILIZE;STANDBY;false;false;false
130.5;0.005923800000001;-47.8987461;0.59;0.0;0.0;100.0;9.27440938539803E-4;1.799325704574585;-0.028418250381946564;0.01;0.0;-0.01;3;9;103.0;0.009999999776482582;0.009999999776482582;STABILIZE;STANDBY;false;false;false
131.0;0.005924;-47.8987462;0.64;0.0;0.0;100.0;8.163843303918839E-4;1.798781394958496;-0.02828415110707283;-0.01;-0.01;0.01;3;9;103.0;0.009999999776482582;0.009999999776482582;STABILIZE;STANDBY;false;false;false
131.5;0.005924100000001;-47.8987463;0.67;0.0;0.0;100.0;8.240342140197754E-4;1.7997606992721558;-0.028150353580713272;0.02;-0.02;-0.02;3;9;103.0;0.019999999552965164;0.019999999552965164;STABILIZE;STANDBY;false;false;false
132.0;0.0059243;-47.8987464;0.72;0.0;0.0;100.0;9.318386437371373E-4;1.7999504804611206;-0.02818910777568817;-0.01;0.02;0.01;3;9;103.0;0.019999999552965164;0.019999999552965164;STABILIZE;STANDBY;false;false;false
132.5;0.005924400000001;-47.8987465;0.75;0.0;0.0;100.0;9.264053078368306E-4;1.8007525205612183;-0.028267908841371536;0.0;-0.01;0.0;3;9;103.0;0.009999999776482582;0.009999999776482582;STABILIZE;STANDBY;false;false;false
133.0;0.005924499999999;-47.8987465;0.78;0.0;0.0;100.0;9.706505807116628E-4;1.8002150058746338;-0.02840314246714115;-0.01;0.0;0.01;3;9;103.0;0.009999999776482582;0.009999999776482582;STABILIZE;STANDBY;false;false;false
133.5;0.0059246;-47.8987466;0.78;0.0;0.0;100.0;8.549095364287496E-4;1.8000932931900024;-0.02836924046278;0.01;-0.01;-0.01;3;9;103.0;0.019999999552965164;0.019999999552965164;STABILIZE;STANDBY;false;false;false
134.0;0.0059246;-47.8987468;0.79;0.0;0.0;100.0;8.124187588691711E-4;1.7990714311599731;-0.028486650437116623;0.0;0.0;0.0;3;9;103.0;0.0;0.0;STABILIZE;STANDBY;false;false;false
134.5;0.005924700000001;-47.8987469;0.81;0.0;0.0;100.0;9.520781459286809E-4;1.7991420030593872;-0.02830987609922886;0.0;-0.01;0.0;3;9;103.0;0.009999999776482582;0.009999999776482582;STABILIZE;STANDBY;false;false;false
135.0;0.005924799999999;-47.8987469;0.79;0.0;0.0;100.0;8.852333994582295E-4;1.7987600564956665;-0.028339600190520287;-0.01;0.0;0.01;3;9;103.0;0.009999999776482582;0.009999999776482582;STABILIZE;STANDBY;false;false;false
135.5;0.0059249;-47.898747;0.78;0.0;0.0;100.0;8.501244010403752E-4;1.7999478578567505;-0.02808765321969986;-0.02;0.01;0.02;3;9;103.0;0.019999999552965164;0.019999999552965164;STABILIZE;STANDBY;false;false;false
136.0;0.005925000000001;-47.8987471;0.76;0.0;0.0;100.0;7.625054568052292E-4;1.799523115158081;-0.02820848859846592;-0.01;-0.01;0.01;3;9;103.0;0.019999999552965164;0.019999999552965164;STABILIZE;STANDBY;false;false;false
136.5;0.005925099999999;-47.8987471;0.75;0.0;0.0;100.0;8.422341197729111E-4;1.800703525543213;-0.02826126664876938;-0.02;-0.02;0.02;3;9;103.0;0.019999999552965164;0.019999999552965164;STABILIZE;STANDBY;false;false;false
137.0;0.0059252;-47.8987472;0.78;0.0;0.0;100.0;8.32822173833847E-4;1.8004558086395264;-0.028208283707499504;0.01;0.04;-0.01;3;9;103.0;0.04999999701976776;0.04999999701976776;STABILIZE;STANDBY;false;false;false
137.5;0.0059252;-47.8987471;0.79;0.0;0.0;100.0;9.834413649514318E-4;1.7997946739196777;-0.028168583288788795;0.01;-0.01;-0.01;3;9;103.0;0.009999999776482582;0.009999999776482582;STABILIZE;STANDBY;false;false;false
138.0;0.005925099999999;-47.8987471;0.77;0.0;0.0;100.0;9.059367002919316E-4;1.799301266670227;-0.028283368796110153;-0.01;0.0;0.01;3;9;103.0;0.009999999776482582;0.009999999776482582;STABILIZE;STANDBY;false;false;false
138.5;0.005925000000001;-47.8987471;0.77;0.0;0.0;100.0;8.125472813844681E-4;1.7995103597640991;-0.02829575352370739;-0.01;0.0;0.01;3;9;103.0;0.009999999776482582;0.009999999776482582;STABILIZE;STANDBY;false;false;false
139.0;0.0059249;-47.8987471;0.77;0.0;0.0;100.0;8.540322305634618E-4;1.7990789413452148;-0.028473060578107834;-0.01;-0.01;0.01;3;9;103.0;0.009999999776482582;0.009999999776482582;STABILIZE;STANDBY;false;false;false
139.5;0.005924700000001;-47.8987471;0.79;0.0;0.0;100.0;8.526501478627324E-4;1.7996591329574585;-0.028395745903253555;0.0;0.0;0.0;3;9;103.0;0.0;0.0;STABILIZE;STANDBY;false;false;false
140.0;0.0059246;-47.8987471;0.79;0.0;0.0;100.0;8.429121226072311E-4;1.800102710723877;-0.02827058918774128;-0.01;0.01;0.01;3;9;103.0;0.009999999776482582;0.009999999776482582;STABILIZE;STANDBY;false;false;false
140.5;0.005924499999999;-47.8987471;0.79;0.0;0.0;100.0;6.738007068634033E-4;1.8003476858139038;-0.0281231626868248;0.01;-0.01;-0.01;3;9;103.0;0.019999999552965164;0.019999999552965164;STABILIZE;STANDBY;false;false;false
141.0;0.0059243;-47.8987471;0.79;0.0;0.0;100.0;7.798671722412109E-4;1.800597906112671;-0.02812250889837742;0.01;-0.01;-0.01;3;9;103.0;0.0;0.0;STABILIZE;STANDBY;false;false;false
141.5;0.005924100000001;-47.8987471;0.8;0.0;0.0;100.0;8.593668462708592E-4;1.80063796043396;-0.028186621144413948;0.0;-0.01;0.0;3;9;103.0;0.009999999776482582;0.009999999776482582;STABILIZE;STANDBY;false;false;false
